City_ID,City,Country,Max Temp,Current Description,Lat,Lng,Hotel Name
4,Busselton,AU,68.04,clear sky,-33.65,115.3333,Observatory Guest House
8,Rikitea,PF,78.96,light rain,-23.1203,-134.9692,People ThankYou
9,Sinnamary,GF,76.8,scattered clouds,5.3833,-52.95,ALETHEIA Appartement Sinnamary
11,Cape Town,ZA,65.08,clear sky,-33.9258,18.4232,Southern Sun Waterfront Cape Town
12,Hobart,AU,78.26,few clouds,-42.8794,147.3294,Mantra on Collins Hobart
13,Karangampel,ID,80.35,overcast clouds,-6.4622,108.4519,ROOFTOP WAG ALL
14,Butaritari,KI,82.27,light rain,3.0707,172.7902,Isles Sunset Lodge
17,Te Anau,NZ,68.25,overcast clouds,-45.4167,167.7167,Kingsgate Hotel Te Anau
18,Hilo,US,76.24,broken clouds,19.7297,-155.09,Hilo Hawaiian Hotel
19,Lisala,CD,69.49,broken clouds,2.15,21.5167,Flat hôtel tozelaka
20,East London,ZA,72.95,few clouds,-33.0153,27.9116,Tu Casa
21,Saint-Philippe,RE,74.79,overcast clouds,-21.3585,55.7679,"Chambres d'hôte ""La Trinité"""
22,Vaini,TO,84.36,scattered clouds,-21.2,-175.2,Keleti Beach Resort
24,Fortuna,US,64.42,clear sky,40.5982,-124.1573,Super 8 by Wyndham Fortuna
27,New Norfolk,AU,77.92,overcast clouds,-42.7826,147.0587,The Shingles Riverside Cottages
29,Chuy,UY,63.32,clear sky,-33.6971,-53.4616,Nuevo Hotel Plaza
32,Bluff,NZ,62.8,overcast clouds,-46.6,168.3333,Bluff Homestead - Guesthouse & Campervan Park
34,Yulara,AU,80.44,broken clouds,-25.2406,130.9889,Desert Gardens Hotel - Ayers Rock Resort
35,Mataura,NZ,62.47,overcast clouds,-46.1927,168.8643,Ellie's Villa
36,Ugoofaaru,MV,80.94,overcast clouds,5.6667,73.0,Ungoofaaru Inn
40,Georgetown,MY,78.73,scattered clouds,5.4112,100.3354,Cititel Penang
41,Sao Filipe,CV,72.57,clear sky,14.8961,-24.4956,Hotel Xaguate
42,Uribia,CO,79.74,broken clouds,11.7139,-72.266,Hotel Uribia
43,Santarem,BR,77.13,scattered clouds,-2.4431,-54.7083,Ecotur Lodge
44,Auchi,NG,70.74,clear sky,7.0667,6.2667,LECKY PLACE & HOTEL
45,Prescott,US,61.16,clear sky,34.54,-112.4685,Prescott Resort & Conference Center
46,Port Alfred,ZA,69.96,scattered clouds,-33.5906,26.891,The Halyards Hotel
47,Half Moon Bay,US,73.31,clear sky,37.4636,-122.4286,"The Ritz-Carlton, Half Moon Bay"
49,San Patricio,US,61.21,clear sky,28.017,-97.5169,"Motel 6 Sinton, TX"
51,Neiafu,TO,77.68,overcast clouds,-18.65,-173.9833,Mystic Sands Beachfront Accommodation
53,Puerto Ayora,EC,74.16,broken clouds,-0.7393,-90.3518,Finch Bay Galapagos Hotel
58,Keti Bandar,PK,68.65,clear sky,24.1447,67.4497,Haji laloo memon house
59,Thinadhoo,MV,82.92,overcast clouds,0.5333,72.9333,
60,Alice Springs,AU,80.15,overcast clouds,-23.7,133.8833,Desert Palms Alice Springs
62,Kruisfontein,ZA,64.74,overcast clouds,-34.0033,24.7314,Oyster Bay House Rental
63,Kisangani,CD,73.96,overcast clouds,0.5167,25.2,Grand Ramela Hotel
64,Bengkulu,ID,77.2,overcast clouds,-3.8004,102.2655,Grage Hotel Bengkulu
65,Mount Gambier,AU,69.71,overcast clouds,-37.8333,140.7667,The Commodore
67,Hithadhoo,MV,82.13,overcast clouds,-0.6,73.0833,Scoop Guest House
68,Kapaa,US,80.19,scattered clouds,22.0752,-159.319,Sheraton Kauai Coconut Beach Resort
69,Ilhabela,BR,73.26,scattered clouds,-23.7781,-45.3581,Ilha Flat Hotel
73,Atuona,PF,78.82,few clouds,-9.8,-139.0333,Villa Enata
76,Sibolga,ID,75.85,overcast clouds,1.7427,98.7792,Hotel Syariah CN Darussalam
79,Kilindoni,TZ,80.56,overcast clouds,-7.9139,39.6668,Bustani B&B
80,George,ZA,63.95,clear sky,-33.963,22.4617,Protea Hotel by Marriott George King George
81,Carnarvon,AU,80.67,clear sky,-24.8667,113.6333,Hospitality Carnarvon
84,Bredasdorp,ZA,62.28,clear sky,-34.5322,20.0403,Bredasdorp Country Manor
85,Avarua,CK,78.85,drizzle,-21.2078,-159.775,Paradise Inn
86,Talcahuano,CL,61.84,clear sky,-36.7167,-73.1167,departamento comodo
87,Lompoc,US,77.14,clear sky,34.6391,-120.4579,"Holiday Inn Express Lompoc, an IHG Hotel"
89,Victoria,HK,62.26,overcast clouds,22.2855,114.1577,Mini Hotel Central
90,Kahului,US,82.42,few clouds,20.8947,-156.47,Maui Seaside Hotel
93,Tshikapa,CD,71.15,overcast clouds,-6.4167,20.8,Hôtel Tshia-Muntu de Tshikapa
95,Mangrol,IN,66.04,scattered clouds,21.1167,70.1167,Hotel The Royal Honours
98,Souillac,MU,75.58,broken clouds,-20.5167,57.5167,Shanti Maurice Resort & Spa
100,Galesong,ID,75.22,overcast clouds,-5.3166,119.3661,Sapriadi Appy
104,Cabo San Lucas,MX,76.3,clear sky,22.8909,-109.9124,Hotel Tesoro Los Cabos
106,Ipixuna,BR,78.75,overcast clouds,-1.7625,-48.8043,Casa da Oscarina
109,Los Llanos De Aridane,ES,66.13,clear sky,28.6585,-17.9182,Valle Aridane
112,Aguimes,ES,67.66,clear sky,27.9054,-15.4461,Hotel Villa de Aguimes
117,Christchurch,NZ,65.32,heavy intensity drizzle,-43.5333,172.6333,The George
119,Tessalit,ML,64.89,clear sky,20.1986,1.0114,
121,Progreso,MX,66.11,overcast clouds,21.2833,-89.6667,Playa Linda Hotel
122,Amuntai,ID,72.72,overcast clouds,-2.4177,115.2494,Hotel Balqis
129,Waipawa,NZ,73.45,overcast clouds,-41.4122,175.5153,Tora Coastal Walk
134,Maragogi,BR,79.0,few clouds,-9.0122,-35.2225,Salinas do Maragogi All Inclusive Resort
136,Faanui,PF,81.32,broken clouds,-16.4833,-151.75,Bora-Bora Pearl Beach Resort & Spa
137,Beloha,MG,73.94,broken clouds,-25.1667,45.05,
138,Esperance,AU,71.44,scattered clouds,-33.8667,121.9,Hospitality Esperance
141,Roebourne,AU,87.42,clear sky,-20.7833,117.1333,Latitude20 Roebourne Village
143,Mahebourg,MU,75.49,broken clouds,-20.4081,57.7,Shandrani Beachcomber Resort & Spa
144,Mangai,CD,73.8,overcast clouds,-4.05,19.5333,
147,Kavaratti,IN,78.42,overcast clouds,10.5669,72.642,Hotels in Lakshadweep Islands
149,Ranong,TH,76.93,scattered clouds,9.9658,98.6348,Tinidee Hotel@Ranong
152,Ladario,BR,75.4,few clouds,-19.0047,-57.6017,Hotel Fazenda 4 cantos
156,Martapura,ID,77.09,few clouds,-3.4167,114.85,Montana Hotel Syariah
157,Hualmay,PE,70.38,broken clouds,-11.0964,-77.6139,Hotel Villa Kitzia Huacho
158,Kavieng,PG,83.82,overcast clouds,-2.5744,150.7967,Nusa Island Retreat
159,Mar Del Plata,AR,67.87,clear sky,-38.0023,-57.5575,Gran Hotel Mar del Plata
160,Port Lincoln,AU,69.17,overcast clouds,-34.7333,135.8667,Port Lincoln Hotel
162,Camocim,BR,77.67,few clouds,-2.9022,-40.8411,Ilha Praia Hotel
163,Bonfim,BR,84.38,overcast clouds,3.0833,-59.95,
164,Hermanus,ZA,63.9,clear sky,-34.4187,19.2345,Misty Waves Boutique Hotel
168,Marsh Harbour,BS,74.07,clear sky,26.5412,-77.0636,Abaco Beach Resort
170,Finschhafen,PG,85.08,overcast clouds,-6.6024,147.8681,Cossam Guest House
173,Ribeira Grande,PT,60.12,scattered clouds,38.5167,-28.7,Quinta da Meia Eira
174,Araouane,ML,65.71,clear sky,18.9048,-3.5265,
177,Kasongo-Lunda,CD,70.29,overcast clouds,-6.4667,16.8167,
181,Vanimo,PG,84.87,scattered clouds,-2.6741,141.3028,Vahmoneh Lodge Vanimo
182,Vila Do Maio,CV,71.55,clear sky,15.1333,-23.2167,Hotel Marilu
183,Ukiah,US,78.69,clear sky,39.1502,-123.2078,Hampton Inn Ukiah
184,Tagusao,PH,82.18,overcast clouds,9.1924,117.8141,Green Villa beach resort
185,Castro,BR,61.38,few clouds,-24.7911,-50.0119,CHACARA BAILLY
186,Vao,NC,81.18,overcast clouds,-22.6667,167.4833,Hotel Kou-Bugny
188,Vila Velha,BR,78.94,heavy intensity rain,-20.3297,-40.2925,Quality Suites Vila Velha
190,Arraial Do Cabo,BR,72.28,overcast clouds,-22.9661,-42.0278,Pousada Porto Praia
192,Broken Hill,AU,82.11,clear sky,-31.95,141.4333,Royal Exchange Hotel
195,Vaitape,PF,81.36,broken clouds,-16.5167,-151.75,Conrad Bora Bora Nui
196,Bambous Virieux,MU,75.45,broken clouds,-20.3428,57.7575,Casa Tia Villa
197,Sibiti,CG,68.16,light rain,-3.6819,13.3499,"LE PAPYRUS (hôtel, bar et restaurant)"
200,Tera,NE,71.71,clear sky,14.0078,0.7531,Hotel Dar es salam
201,Taltal,CL,67.01,clear sky,-25.4,-70.4833,Residencial Karime
204,Los Chiles,CR,76.12,few clouds,11.0333,-84.7167,Cabinas y Apartamentos Felicia
205,Flinders,AU,87.06,clear sky,-34.5833,150.8552,Shellharbour Resort & Conference Centre
206,Puerto Madryn,AR,64.54,scattered clouds,-42.7692,-65.0385,Hotel Tolosa
208,Pisco,PE,71.02,clear sky,-13.7,-76.2167,Hotel San Isidro Oficial
209,Cidreira,BR,69.82,clear sky,-30.1811,-50.2056,Hotel Castelo
210,Umm Kaddadah,SD,60.28,clear sky,13.6017,26.6876,
214,Pagudpud,PH,76.96,few clouds,18.5616,120.7868,Saud Beach Resort and Hotel - 2
215,Sunbury,AU,80.02,broken clouds,-37.5833,144.7333,Sunbury Motor Inn
216,Port Elizabeth,ZA,62.89,broken clouds,-33.918,25.5701,39 On Nile Guest House
218,Whyalla,AU,71.49,broken clouds,-33.0333,137.5833,Foreshore Motor Inn
219,Eyl,SO,71.2,clear sky,7.9803,49.8164,Amiin Hotel
221,Inhambane,MZ,71.02,clear sky,-23.865,35.3833,Oceano
222,Ahipara,NZ,81.48,clear sky,-35.1667,173.1667,Ahipara Holiday Park
224,Richards Bay,ZA,67.42,clear sky,-28.783,32.0377,BON Hotel Waterfront Richards Bay
225,Tambura,SS,68.18,overcast clouds,5.6,27.4667,Rikito Lodge
226,Adelaide,AU,75.42,broken clouds,-34.9333,138.6,The Chancellor on Currie
227,Pathein,MM,65.89,overcast clouds,16.7833,94.7333,New Pammawaddy Hotel
232,Oranjestad,AW,80.55,scattered clouds,12.524,-70.027,Divi Village Golf & Beach Resort
234,Atar,MR,72.07,overcast clouds,20.5169,-13.0499,Oumou Elghoura
235,Barao De Melgaco,BR,79.32,moderate rain,-16.1944,-55.9675,Tuiuiu Pantanal Hotel
237,Fonte Boa,BR,70.99,light rain,-2.4959,-66.2662,
238,Isangel,VU,78.67,overcast clouds,-19.55,169.2667,Tanna Lodge
239,Syriam,MM,66.31,mist,16.7722,96.2378,Excel River View Hotel
240,Nhulunbuy,AU,86.61,scattered clouds,-12.2333,136.7667,East Arnhem Real Estate
241,Aswan,EG,60.1,clear sky,24.0934,32.907,Nuba Nile
242,Adrar,MR,65.34,overcast clouds,20.5022,-10.0711,
243,Henderson,US,76.44,clear sky,36.0397,-114.9819,Hawthorn Suites By Wyndham Las Vegas/Henderson
244,Puerto Colombia,CO,80.69,clear sky,10.9878,-74.9547,Hotel El Emigrante
245,Comodoro Rivadavia,AR,64.26,clear sky,-45.8667,-67.5,Austral Hotel
249,Hobyo,SO,75.6,clear sky,5.3505,48.5268,Halane Hotel and Restaurent
251,Ati,TD,63.36,clear sky,13.2154,18.3353,
261,Tucurui,BR,73.81,heavy intensity rain,-3.7661,-49.6725,BBB Rooms Centro Tucurui PA
264,Dunda,TZ,62.92,light rain,-8.1167,34.25,
266,Nelson Bay,AU,86.29,clear sky,-32.7167,152.15,Mantra Nelson Bay
267,Ponta Do Sol,PT,69.01,overcast clouds,32.6667,-17.1,Hotel do Campo
268,Emerald,AU,83.34,clear sky,-23.5333,148.1667,The Irish Village
272,Saint-Pierre,RE,74.88,clear sky,-21.3393,55.4781,Lindsey Hôtel
274,Marsabit,KE,69.8,clear sky,2.3284,37.9899,Chicho Hotel
275,Buala,SB,80.69,moderate rain,-8.145,159.5921,Maringe Lagoon Lodge
276,Maues,BR,73.96,light rain,-3.3836,-57.7186,Hotel Miramar
278,Vallenar,CL,70.07,broken clouds,-28.5708,-70.7581,Humacao Bed & Breakfast
279,Tiznit,MA,62.24,clear sky,29.5833,-9.5,
280,Santa Cruz,BO,80.06,scattered clouds,-17.8,-63.1667,Aviador Hotel Boutique
281,Port-Gentil,GA,80.51,light rain,-0.7193,8.7815,Fengshui Residence
283,Balingasay,PH,79.9,broken clouds,16.3573,119.8564,Rock Garden Resort
284,Reconquista,AR,74.48,clear sky,-29.15,-59.65,Grand Hotel
285,Katobu,ID,80.64,overcast clouds,-4.9408,122.5276,La Ode Husein
288,Robertsport,LR,79.95,clear sky,6.7533,-11.3686,Kwepunha Retreat
289,Santiago Del Estero,AR,77.81,clear sky,-27.7951,-64.2615,Apartamentos Castelli 90
290,Lethem,GY,83.21,overcast clouds,3.3803,-59.7968,Savannah Inn
300,Magaria,NE,65.32,clear sky,12.9983,8.9099,Chez Honorable Chapiou
301,Ternate,ID,81.54,overcast clouds,0.8,127.4,Sahid Bela Ternate Hotel
302,Antofagasta,CL,65.86,clear sky,-23.65,-70.4,"Holiday Inn Express Antofagasta, an IHG Hotel"
304,Rio Grande,BR,66.94,clear sky,-32.035,-52.0986,Hotel Atlântico Rio Grande
306,Saint George,US,68.47,clear sky,37.1041,-113.5841,Best Western Plus Abbey Inn
308,Bonthe,SL,76.69,few clouds,7.5264,-12.505,Bonthe Holiday Village
309,Salalah,OM,63.77,clear sky,17.0151,54.0924,"HAMDAN PLAZA HOTEL SALALAH, an HTG Hotel"
311,Laguna,US,73.22,clear sky,38.421,-121.4238,"Holiday Inn Express & Suites Elk Grove Central - Hwy 99, an IHG Hotel"
312,Poya,NC,81.41,overcast clouds,-21.35,165.15,
314,Belmonte,BR,81.1,few clouds,-15.8631,-38.8828,Pousada Monte Carmelo O Pão
317,Takoradi,GH,78.31,few clouds,4.8845,-1.7554,Raybow International Hotel
321,Qui Nhon,VN,75.16,overcast clouds,13.7667,109.2333,Hoang Yen Canary Hotel
324,Tehachapi,US,67.41,scattered clouds,35.1322,-118.449,"Holiday Inn Express & Suites Tehachapi Hwy 58/Mill St., an IHG Hotel"
327,Acarau,BR,79.43,scattered clouds,-2.8856,-40.12,castelo pizzaria
331,Amahai,ID,84.9,broken clouds,-3.3333,128.9167,HOTEL ISABELA
333,Geraldton,AU,73.13,clear sky,-28.7667,114.6,Broadwater Mariner Resort
334,The Valley,AI,77.83,scattered clouds,18.217,-63.0578,CeBlue Villas & Beach Resort
335,Guayaramerin,BO,73.31,overcast clouds,-10.8368,-65.3614,Hostal Funf
336,San Marcos,US,77.02,overcast clouds,33.1434,-117.1661,Hampton Inn San Marcos
338,Pimentel,PE,71.62,overcast clouds,-6.8367,-79.9342,Casona Del Muelle
339,Concepcion Del Uruguay,AR,70.99,clear sky,-32.4825,-58.2372,Aires del Campo Cabañas y Hotel
340,Coihaique,CL,60.75,scattered clouds,-45.5752,-72.0662,Diego De Almagro Coyhaique
341,Parana,AR,75.51,clear sky,-31.732,-60.5238,Howard Johnson by Wyndham Plaza Hotel Mayorazgo
343,Dharmadam,IN,71.49,overcast clouds,11.7833,75.4333,Samudra Homes
344,Mount Isa,AU,87.57,clear sky,-20.7333,139.5,ibis Styles Mt Isa Verona
348,Constitucion,CL,60.3,scattered clouds,-35.3333,-72.4167,Hotel Boutique Las Azucenas
349,Nabire,ID,76.91,overcast clouds,-3.3667,135.4833,Hotel Nusantara Nabire
352,Ballina,AU,78.98,overcast clouds,-28.8667,153.5667,Ramada Hotel & Suites by Wyndham Ballina Byron
355,Zwedru,LR,71.53,few clouds,6.0667,-8.1281,Elijah Worjloh
357,Tutoia,BR,84.18,broken clouds,-2.7619,-42.2744,Pousada Guará's
359,Chililabombwe,ZM,62.08,light rain,-12.3648,27.8229,Tabernacle Guest Lodge and Events (Under new management!)
362,Camacha,PT,65.53,few clouds,33.0833,-16.3333,Hotel Porto Santo & Spa
366,Airai,TL,68.49,overcast clouds,-8.9266,125.4092,
370,Jacqueville,CI,82.31,clear sky,5.2052,-4.4146,Hotel Le Martin Pecheur
372,Jibuti,DJ,71.02,broken clouds,11.5,42.5,Orchid Main Camp Goubet
375,Quelimane,MZ,71.82,clear sky,-17.8786,36.8883,Hotel Flamingo
377,Yarada,IN,66.52,mist,17.65,83.2667,Yarada Jungle Beach Resorts
380,Tecoanapa,MX,78.46,broken clouds,16.5167,-98.75,Hotel Manglares
381,Villa Bruzual,VE,81.68,overcast clouds,9.3328,-69.1208,hotel italia
382,Sao Joao Dos Patos,BR,72.5,clear sky,-6.495,-43.7022,Montesino Hotel & Restaurante
386,Taoudenni,ML,66.67,clear sky,22.6783,-3.9836,
387,Tizimin,MX,68.95,overcast clouds,21.15,-88.15,silva hogar
392,Miraflores,MX,61.03,broken clouds,19.2167,-98.8083,Hotel Mansión
393,Mackay,AU,88.68,clear sky,-21.15,149.2,International Lodge Motel
395,Fare,PF,81.66,light rain,-16.7,-151.0167,Maitai Lapita Village Huahine
396,San Cristobal,VE,73.58,scattered clouds,7.7669,-72.225,Posada Villaven C.A.
401,Diego De Almagro,CL,65.08,clear sky,-26.3667,-70.05,hotel luna del desierto
402,Quatre Cocos,MU,75.31,overcast clouds,-20.2078,57.7625,Sunrise Attitude Hotel
404,Tanete,ID,81.1,overcast clouds,-3.9443,119.7848,Wisma Tri Multi
410,Livingstone,ZM,64.85,scattered clouds,-17.8419,25.8543,Gloria's Bed and Breakfast
411,Karratha,AU,87.37,few clouds,-20.7377,116.8463,ibis Styles Karratha
413,Maua,BR,69.37,broken clouds,-23.6678,-46.4614,Hotel Capriccio Mauá
414,Rumphi,MW,62.38,broken clouds,-11.0186,33.8575,Finst Rumphi Earthbag House Lodge
416,Ejura,GH,77.0,scattered clouds,7.3856,-1.3562,Fire Servece
417,Toucheng,TW,65.14,overcast clouds,24.8592,121.8233,和風時尚VILLA會館
418,Caravelas,BR,77.31,few clouds,-17.7125,-39.2481,Pousada dos Navegantes
420,Thaton,MM,66.79,overcast clouds,16.9206,97.3714,"Shwe Pyi Soe Guest House, Thaton"
423,Tuy Hoa,VN,75.96,overcast clouds,13.0833,109.3,CenDeluxe Hotel Tuy Hoa
425,Bandarbeyla,SO,74.98,broken clouds,9.4942,50.8122,JABIR HOTEL
426,Lima,PE,71.38,few clouds,-12.0432,-77.0282,Gran Hotel Bolivar Lima
428,La Palma,US,81.99,broken clouds,33.8464,-118.0467,La Quinta Inn & Suites by Wyndham Buena Park
430,Santa Maria,BR,67.3,clear sky,-29.6842,-53.8069,Hotel Morotin
435,Tarata,BO,62.02,broken clouds,-17.6167,-66.0167,Hacienda castillo
439,Basco,PH,74.41,overcast clouds,20.4487,121.9702,Nathaniel's Lodge
440,Kano,NG,64.29,overcast clouds,12.0001,8.5167,Havana Guest Inn
441,Cabedelo,BR,81.27,scattered clouds,-6.9811,-34.8339,Hotel Pigalle
443,Cockburn Town,TC,76.96,scattered clouds,21.4612,-71.1419,Osprey Beach Hotel
444,Mbengwi,CM,64.76,few clouds,6.0167,10.0,Senate Hotel
447,Phan Thiet,VN,79.92,overcast clouds,10.9333,108.1,Hotel Saigon-PT
450,Am Timan,TD,69.96,clear sky,11.0297,20.2827,Palais du chef Canton Salamt
453,Rawson,AR,63.39,few clouds,-43.3002,-65.1023,Hosteria Sampedro
454,Puerto Escondido,MX,77.05,scattered clouds,15.85,-97.0667,Aldea del Bazar Hotel and Spa
458,Nanakuli,US,80.11,scattered clouds,21.3906,-158.1547,Camp Pālehua
459,Melo,UY,62.04,clear sky,-32.3667,-54.1833,Hotel Juana
460,Axim,GH,77.81,overcast clouds,4.8699,-2.2405,Axim Beach Resort And Spa
462,Kununurra,AU,84.18,broken clouds,-15.7667,128.7333,Hotel Kununurra
463,Kupang,ID,82.9,overcast clouds,-10.1667,123.5833,Hotel On The Rock by Prasanthi
464,Huarmey,PE,71.46,overcast clouds,-10.0681,-78.1522,Hotel Miramar
467,Pemba,MZ,77.7,few clouds,-12.974,40.5178,Guesthouse Samotina
468,Lazaro Cardenas,MX,75.88,clear sky,17.9583,-102.2,Baymont by Wyndham Lazaro Cardenas
469,Catio,GW,72.68,broken clouds,11.2833,-15.25,Pausada Morabedja
471,Saldanha,ZA,62.65,overcast clouds,-33.0117,17.9442,Blue Bay Lodge
472,Port Hedland,AU,84.25,scattered clouds,-20.3167,118.5667,"The Esplanade Hotel (Accommodation section closed for refurbishment - Bar, Restaurant & Functions remain open)"
475,Touros,BR,81.5,clear sky,-5.1989,-35.4608,INN NEW HORIZON
479,Bowen,AU,84.42,clear sky,-20.0167,148.2333,Castle Motor Lodge Motel
482,Jega,NG,71.53,broken clouds,12.2175,4.3792,ALH. Nasiru Ibrahim
484,Maneadero,MX,66.09,clear sky,31.7167,-116.5667,Casa De Thompson
487,Aden,YE,76.33,few clouds,12.7794,45.0367,Sama Emirate Hotel
488,Hoima,UG,70.66,overcast clouds,1.4356,31.3436,Tik Hotel
490,Doha,QA,60.78,clear sky,25.2867,51.5333,Movenpick Hotel Doha
492,Ampanihy,MG,73.0,overcast clouds,-24.7,44.75,Angora Hotel
496,Makakilo City,US,79.61,scattered clouds,21.3469,-158.0858,Marriott's Ko Olina Beach Club
497,General Roca,AR,79.2,overcast clouds,-39.0333,-67.5833,Hotel y Casino del Río General Roca
500,Chicama,PE,68.54,overcast clouds,-7.8447,-79.1469,Balihai Bungalows
502,Mattru,SL,74.07,clear sky,7.6244,-11.8332,"Mondkor Town, Bagbo Chiefdom, Bo District"
503,Kailua,US,81.07,broken clouds,21.4022,-157.7394,Sheffield House Bed & Breakfast
504,Senanga,ZM,68.22,overcast clouds,-16.1167,23.2667,Zango lodge
506,Kerouane,GN,71.82,clear sky,9.2667,-9.0167,
507,Coquimbo,CL,64.22,scattered clouds,-29.9533,-71.3436,Hostel Del Puerto
509,Codrington,AU,70.05,overcast clouds,-38.2667,141.9667,Codrington Gardens Bed And Breakfast
512,Tautira,PF,86.02,light rain,-17.7333,-149.15,Pension Oaoa
515,Kalmunai,LK,76.19,overcast clouds,7.4167,81.8167,VS Villa
516,Tabalosos,PE,70.0,overcast clouds,-6.35,-76.6833,Proyecto de Lounge Nazareth
517,Padang,ID,75.25,overcast clouds,-0.9492,100.3543,Mercure Padang
518,Alto Araguaia,BR,68.7,overcast clouds,-17.3147,-53.2153,Araguaia Palace Hotel
521,Batangafo,CF,70.34,clear sky,7.3008,18.2833,OCHA Office
523,Pemangkat,ID,78.39,overcast clouds,1.1667,108.9667,Ramah Kost KITA
526,Bathsheba,BB,74.01,scattered clouds,13.2167,-59.5167,Atlantis Hotel
529,San Quintin,MX,64.0,clear sky,30.4833,-115.95,Don Eddie's Landing
530,Boyolangu,ID,79.07,overcast clouds,-8.1181,111.8935,Yos ega cv
532,Tabon,PH,82.18,overcast clouds,9.2388,117.9946,Port Lodge
533,Miranda,CO,66.33,overcast clouds,3.2499,-76.2281,unidiversidad organica la utopia
536,Ojinaga,MX,61.75,clear sky,29.5667,-104.4167,Suites Las Palmas
538,Eydhafushi,MV,81.25,overcast clouds,5.1033,73.0708,Soneva Fushi
539,Necochea,AR,65.03,overcast clouds,-38.5473,-58.7368,dyd -mar Hotel
540,Sal Rei,CV,68.56,clear sky,16.1833,-22.9167,Marine Club Beach Resort
541,Chincholi,IN,68.68,overcast clouds,17.4667,77.4333,Friends men's were
543,Pandhana,IN,63.84,few clouds,21.7,76.2167,ठा. करण सिंह चौहान
544,Da Nang,VN,75.18,broken clouds,16.0678,108.2208,Sun River Hotel
548,Bubaque,GW,77.7,clear sky,11.2833,-15.8333,"Casa Dora, Bubaque"
549,Auki,SB,78.1,light rain,-8.7676,160.7034,Auki Motel
550,Bontang,ID,77.13,moderate rain,0.1333,117.5,KOPKAR Hotel Bintang Sintuk
552,Sao Joao Da Barra,BR,72.88,moderate rain,-21.6403,-41.0511,Pousada Porto De Canoas
555,Paso De Los Toros,UY,65.61,clear sky,-32.8167,-56.5167,Complejo Isabelino
557,Acapulco,MX,76.89,clear sky,16.8634,-99.8901,HS Hotsson Smart Acapulco
558,San Miguel,SV,74.77,clear sky,13.4833,-88.1833,Hotel Tropico Inn San Miguel
560,Tanout,NE,62.58,clear sky,14.9709,8.8879,
561,Bairiki,KI,82.13,broken clouds,1.3292,172.9752,Tarawa Boutique Hotel
562,Torres,BR,68.83,clear sky,-29.3353,-49.7269,Farol Hotel
563,High Rock,BS,73.24,clear sky,26.6208,-78.2833,Hideaway Bahamas Beach Club
564,Maceio,BR,80.04,few clouds,-9.6658,-35.7353,Poutur Pousada
567,Bandar-E Lengeh,IR,64.96,clear sky,26.5579,54.8807,کافی نت پارس
568,Sao Felix Do Xingu,BR,72.75,overcast clouds,-6.6447,-51.995,Rio Xingu Camping
569,Oussouye,SN,71.92,clear sky,12.485,-16.5469,Auberge du Routard
570,Cairo,EG,60.22,haze,30.0626,31.2497,Grand Hotel
572,Tuatapere,NZ,64.81,moderate rain,-46.1333,167.6833,Ron and Tony's Bed & Breakfast
573,Lucapa,AO,64.22,overcast clouds,-8.4192,20.7447,Residência Ulisses Dos Santos
574,Cap Malheureux,MU,74.46,overcast clouds,-19.9842,57.6142,Pereybere Hotel & Spa
575,Bambanglipuro,ID,79.75,overcast clouds,-7.95,110.2833,Puri Brata
576,Ambon,ID,82.54,scattered clouds,-3.6954,128.1814,Swiss-Belhotel Ambon
578,Luwuk,ID,84.85,overcast clouds,-0.9516,122.7875,Hotel Santika Luwuk
579,Kango,GA,74.68,broken clouds,0.1943,10.0951,Hôtel Bar Restaurant Le Bercail
581,Port Blair,IN,75.24,mist,11.6667,92.75,"Welcomhotel By ITC Hotels, Bay Island, Port Blair"
582,Tomatlan,MX,71.35,clear sky,19.9333,-105.25,El Salvial
588,Bella Union,UY,68.95,clear sky,-30.2752,-57.6007,Saville Free Shop
590,Manicore,BR,74.1,moderate rain,-5.8092,-61.3003,Hotel Durval
596,Kidal,ML,67.24,clear sky,18.4411,1.4078,
600,Manali,IN,78.08,overcast clouds,13.1667,80.2667,Sarathy Lodge
610,Kaura Namoda,NG,69.46,overcast clouds,12.5898,6.5779,Moonlight Hotel
614,Fortaleza,BR,82.22,broken clouds,-3.7227,-38.5247,Hotel Sonata de Iracema
616,Olinda,BR,82.13,scattered clouds,-8.0089,-34.8553,Hotel Albergue de Olinda
618,Camacupa,AO,61.09,overcast clouds,-12.0167,17.4833,
619,San Jose,US,72.09,clear sky,37.3394,-121.895,The Westin San Jose
623,Turiacu,BR,74.5,broken clouds,-1.6633,-45.3717,Pousada Maranata
624,Isla Mujeres,MX,69.17,overcast clouds,21.2311,-86.731,Hotel La Joya Isla Mujeres
625,Carauari,BR,73.29,heavy intensity rain,-4.8828,-66.8958,Hotel Fellip
626,Tamandare,BR,78.96,few clouds,-8.7597,-35.1047,Pousada 100 Passos
627,Puerto Del Rosario,ES,71.35,overcast clouds,28.5004,-13.8627,Hotel JM Puerto del Rosario
628,Porto Novo,BJ,76.64,scattered clouds,6.4965,2.6036,Tour Eiffel Hotel Benin
632,Meulaboh,ID,76.12,overcast clouds,4.1363,96.1285,Kost Pria
633,Filingue,NE,70.72,clear sky,14.3521,3.3168,
636,Mundo Nuevo,MX,65.41,overcast clouds,18.7,-95.5,
639,Coruripe,BR,78.49,few clouds,-10.1256,-36.1756,Pousada e Hotel Litoral Sul
640,Leogane,HT,77.18,scattered clouds,18.5108,-72.6339,Family Health Ministries Guest House
642,Nishihara,JP,65.48,broken clouds,26.1842,127.7558,Minshuku Agaihama
645,Nouadhibou,MR,66.09,scattered clouds,20.931,-17.0347,El Medina
647,Black River,JM,72.99,few clouds,18.0264,-77.8487,Idlers' Rest Beach Hotel
648,Bodden Town,KY,79.0,clear sky,19.2833,-81.25,Will T Place
649,Labuhan,ID,79.9,overcast clouds,-6.8844,112.2051,DoubleFAG
650,Weligama,LK,76.26,overcast clouds,5.9667,80.4167,Weligama Bay Resort
651,Itarema,BR,79.27,scattered clouds,-2.9248,-39.9167,"Sea Lounge! Bar, Club & Restaurant"
652,Iralaya,HN,75.18,clear sky,15.0,-83.2333,Iglesia morava renovada
663,Totness,SR,76.32,scattered clouds,5.8833,-56.3167,STAATS LOGEERGEBOUW TOTNESS
664,Kieta,PG,85.64,light rain,-6.2167,155.6333,Uruna Bay Retreat
666,Lagarto,BR,80.89,clear sky,-10.9172,-37.65,Pousada Cota
667,Nhamunda,BR,75.42,light rain,-2.1861,-56.7131,Pousada Da Praia
673,Waingapu,ID,84.0,light rain,-9.6567,120.2641,Pondok Wisata Elim
675,Guerrero Negro,MX,66.52,few clouds,27.9769,-114.0611,"Casa Laguna, Bed & Breakfast"
677,Castelo Do Piaui,BR,77.29,scattered clouds,-5.3222,-41.5525,Nobre Hotel
680,Piedras Negras,MX,64.98,clear sky,28.7,-100.5167,"Holiday Inn Express & Suites Eagle Pass, an IHG Hotel"
683,Daru,PG,80.17,light rain,-9.0763,143.2092,Daru Lodge
684,Kamakwie,SL,71.67,scattered clouds,9.5,-12.2333,White House Hotel
685,Port Macquarie,AU,80.89,clear sky,-31.4333,152.9167,Rydges Port Macquarie
686,Merauke,ID,82.81,overcast clouds,-8.4667,140.3333,
688,Bumba,CD,70.63,broken clouds,2.1833,22.4667,Père Carlos
690,Canutama,BR,73.74,light rain,-6.5339,-64.3831,Hotel Jhennifer
