City_ID,City,Country,Lat,Lng,Max Temp,Humidity,Cloudiness,Wind Speed,Current Description
0,Thompson,CA,55.7435,-97.8558,14.16,73,100,13.8,overcast clouds
1,Albany,US,42.6001,-73.9662,31.37,74,32,1.99,scattered clouds
2,Ushuaia,AR,-54.8,-68.3,49.66,57,20,11.5,few clouds
3,Jamestown,US,42.097,-79.2353,27.72,79,100,10.36,overcast clouds
4,Busselton,AU,-33.65,115.3333,68.04,57,0,6.31,clear sky
5,Nanortalik,GL,60.1432,-45.2371,9.59,63,9,17.31,clear sky
6,Erenhot,CN,43.6475,111.9767,9.73,77,20,10.49,few clouds
7,Punta Arenas,CL,-53.15,-70.9167,53.71,54,75,10.36,broken clouds
8,Rikitea,PF,-23.1203,-134.9692,78.96,71,81,13.94,light rain
9,Sinnamary,GF,5.3833,-52.95,76.8,85,29,5.99,scattered clouds
10,Pangnirtung,CA,66.1451,-65.7125,-7.4,97,100,4.52,overcast clouds
11,Cape Town,ZA,-33.9258,18.4232,65.08,82,0,4.61,clear sky
12,Hobart,AU,-42.8794,147.3294,78.26,53,20,9.22,few clouds
13,Karangampel,ID,-6.4622,108.4519,80.35,79,100,7.58,overcast clouds
14,Butaritari,KI,3.0707,172.7902,82.27,76,97,15.5,light rain
15,Gat,IL,31.61,34.7642,52.39,48,5,6.4,clear sky
16,Sosnovo-Ozerskoye,RU,52.5249,111.5418,-15.34,100,97,0.83,overcast clouds
17,Te Anau,NZ,-45.4167,167.7167,68.25,64,100,0.85,overcast clouds
18,Hilo,US,19.7297,-155.09,76.24,79,75,8.05,broken clouds
19,Lisala,CD,2.15,21.5167,69.49,38,56,2.33,broken clouds
20,East London,ZA,-33.0153,27.9116,72.95,91,23,13.51,few clouds
21,Saint-Philippe,RE,-21.3585,55.7679,74.79,84,87,9.69,overcast clouds
22,Vaini,TO,-21.2,-175.2,84.36,94,40,13.8,scattered clouds
23,Tuktoyaktuk,CA,69.4541,-133.0374,-40.0,67,20,3.44,mist
24,Fortuna,US,40.5982,-124.1573,64.42,79,0,10.36,clear sky
25,De-Kastri,RU,51.4667,140.7833,11.62,86,100,15.64,overcast clouds
26,Sonepur,IN,20.8333,83.9167,57.67,51,5,3.87,clear sky
27,New Norfolk,AU,-42.7826,147.0587,77.92,30,92,1.99,overcast clouds
28,Hangzhou,CN,30.2937,120.1614,40.91,95,100,3.47,light rain
29,Chuy,UY,-33.6971,-53.4616,63.32,79,8,6.46,clear sky
30,Norman Wells,CA,65.282,-126.8329,-23.76,57,75,0.0,broken clouds
31,Karacakoy,TR,41.4029,28.3834,42.67,72,89,25.41,overcast clouds
32,Bluff,NZ,-46.6,168.3333,62.8,80,100,13.24,overcast clouds
33,Tommot,RU,58.9564,126.2925,-6.72,96,100,1.68,overcast clouds
34,Yulara,AU,-25.2406,130.9889,80.44,36,75,18.41,broken clouds
35,Mataura,NZ,-46.1927,168.8643,62.47,69,100,5.3,overcast clouds
36,Ugoofaaru,MV,5.6667,73.0,80.94,68,98,11.07,overcast clouds
37,Balad,IQ,34.0164,44.1453,52.95,50,71,6.71,broken clouds
38,Palmer,US,42.1584,-72.3287,34.97,66,40,5.75,scattered clouds
39,Kutum,SD,14.2,24.6667,54.12,20,0,5.48,clear sky
40,Georgetown,MY,5.4112,100.3354,78.73,91,40,3.44,scattered clouds
41,Sao Filipe,CV,14.8961,-24.4956,72.57,73,2,1.01,clear sky
42,Uribia,CO,11.7139,-72.266,79.74,74,68,17.6,broken clouds
43,Santarem,BR,-2.4431,-54.7083,77.13,100,40,0.0,scattered clouds
44,Auchi,NG,7.0667,6.2667,70.74,88,4,4.56,clear sky
45,Prescott,US,34.54,-112.4685,61.16,14,0,8.05,clear sky
46,Port Alfred,ZA,-33.5906,26.891,69.96,90,27,13.65,scattered clouds
47,Half Moon Bay,US,37.4636,-122.4286,73.31,64,0,9.22,clear sky
48,Campbell River,CA,50.0163,-125.2446,44.13,93,100,9.22,mist
49,San Patricio,US,28.017,-97.5169,61.21,44,0,8.88,clear sky
50,Dikson,RU,73.5069,80.5464,3.43,94,100,22.53,overcast clouds
51,Neiafu,TO,-18.65,-173.9833,77.68,88,100,8.05,overcast clouds
52,Xining,CN,36.6167,101.7667,9.57,84,34,2.53,scattered clouds
53,Puerto Ayora,EC,-0.7393,-90.3518,74.16,80,58,5.44,broken clouds
54,Santander,ES,43.4647,-3.8044,49.46,85,0,7.0,clear sky
55,Cherskiy,RU,68.75,161.3,-36.85,97,73,3.89,broken clouds
56,Shitanjing,CN,39.2342,106.3439,11.5,64,0,3.83,clear sky
57,Barrow,US,71.2906,-156.7887,-29.18,100,0,6.91,haze
58,Keti Bandar,PK,24.1447,67.4497,68.65,61,0,8.84,clear sky
59,Thinadhoo,MV,0.5333,72.9333,82.92,66,100,13.27,overcast clouds
60,Alice Springs,AU,-23.7,133.8833,80.15,65,88,8.05,overcast clouds
61,Vulcan,RO,45.3833,23.2667,25.23,87,58,7.09,broken clouds
62,Kruisfontein,ZA,-34.0033,24.7314,64.74,63,99,7.94,overcast clouds
63,Kisangani,CD,0.5167,25.2,73.96,62,88,0.6,overcast clouds
64,Bengkulu,ID,-3.8004,102.2655,77.2,82,98,5.68,overcast clouds
65,Mount Gambier,AU,-37.8333,140.7667,69.71,64,100,10.36,overcast clouds
66,Waterford,US,42.7023,-83.4027,24.84,75,75,9.22,broken clouds
67,Hithadhoo,MV,-0.6,73.0833,82.13,71,100,14.41,overcast clouds
68,Kapaa,US,22.0752,-159.319,80.19,66,40,10.36,scattered clouds
69,Ilhabela,BR,-23.7781,-45.3581,73.26,83,36,5.41,scattered clouds
70,Tura,IN,25.5198,90.2201,52.75,73,1,2.95,clear sky
71,Gerash,IR,27.6652,54.1371,42.94,42,0,1.66,clear sky
72,Qaanaaq,GL,77.484,-69.3632,-14.24,90,100,5.08,overcast clouds
73,Atuona,PF,-9.8,-139.0333,78.82,75,19,16.58,few clouds
74,Bud,US,39.447,-86.1758,44.69,65,6,11.99,clear sky
75,Nokha,IN,27.6,73.4167,58.44,67,17,8.23,few clouds
76,Sibolga,ID,1.7427,98.7792,75.85,89,100,3.71,overcast clouds
77,Cortes,ES,41.9395,-1.4396,44.6,75,5,5.48,clear sky
78,Luderitz,NA,-26.6481,15.1594,72.37,67,0,10.42,clear sky
79,Kilindoni,TZ,-7.9139,39.6668,80.56,75,100,13.71,overcast clouds
80,George,ZA,-33.963,22.4617,63.95,88,0,5.75,clear sky
81,Carnarvon,AU,-24.8667,113.6333,80.67,47,0,17.27,clear sky
82,Grindavik,IS,63.8424,-22.4338,30.67,86,75,27.63,light snow
83,Pevek,RU,69.7008,170.3133,-29.83,100,91,3.98,overcast clouds
84,Bredasdorp,ZA,-34.5322,20.0403,62.28,88,0,8.05,clear sky
85,Avarua,CK,-21.2078,-159.775,78.85,89,20,8.05,drizzle
86,Talcahuano,CL,-36.7167,-73.1167,61.84,77,0,16.26,clear sky
87,Lompoc,US,34.6391,-120.4579,77.14,55,0,11.5,clear sky
88,Yellowknife,CA,62.456,-114.3525,-14.58,81,75,4.61,broken clouds
89,Victoria,HK,22.2855,114.1577,62.26,81,100,5.01,overcast clouds
90,Kahului,US,20.8947,-156.47,82.42,64,20,17.27,few clouds
91,Tasiilaq,GL,65.6145,-37.6368,21.36,79,100,8.43,overcast clouds
92,Ostrovnoy,RU,68.0531,39.5131,15.62,86,99,20.0,overcast clouds
93,Tshikapa,CD,-6.4167,20.8,71.15,95,100,1.66,overcast clouds
94,Skjervoy,NO,70.0311,20.9714,31.73,64,100,14.83,overcast clouds
95,Mangrol,IN,21.1167,70.1167,66.04,84,30,9.8,scattered clouds
96,Tongliao,CN,43.6125,122.2653,17.37,81,99,8.72,overcast clouds
97,Nikolskoye,RU,59.7035,30.7861,31.71,97,100,4.81,snow
98,Souillac,MU,-20.5167,57.5167,75.58,88,75,3.44,broken clouds
99,Tyukhtet,RU,56.5389,89.3011,-15.41,98,7,5.3,clear sky
100,Galesong,ID,-5.3166,119.3661,75.22,77,100,5.7,overcast clouds
101,Ancud,CL,-41.8697,-73.8203,58.53,75,4,6.06,clear sky
102,Tiksi,RU,71.6872,128.8694,-18.78,98,58,9.35,broken clouds
103,Kodinsk,RU,58.6881,99.1844,-27.58,100,21,2.86,few clouds
104,Cabo San Lucas,MX,22.8909,-109.9124,76.3,59,4,1.99,clear sky
105,Ilulissat,GL,69.2167,-51.1,-5.78,59,97,19.57,overcast clouds
106,Ipixuna,BR,-1.7625,-48.8043,78.75,97,99,2.64,overcast clouds
107,Rabo De Peixe,PT,37.8,-25.5833,56.28,94,20,5.75,few clouds
108,Srednekolymsk,RU,67.45,153.6833,-36.96,96,71,5.32,broken clouds
109,Los Llanos De Aridane,ES,28.6585,-17.9182,66.13,33,0,4.61,clear sky
110,Kosice,SK,48.6667,21.3333,37.33,77,100,2.3,overcast clouds
111,Bolu,TR,40.6667,31.5833,30.85,98,100,6.04,light snow
112,Aguimes,ES,27.9054,-15.4461,67.66,45,0,0.0,clear sky
113,Kodiak,US,57.79,-152.4072,24.31,54,0,14.97,clear sky
114,Vilcun,CL,-38.65,-72.2333,56.64,78,6,2.37,clear sky
115,Fort Nelson,CA,58.8053,-122.7002,4.59,78,100,4.61,overcast clouds
116,West Lorne,CA,42.6001,-81.5998,21.97,90,14,9.08,few clouds
117,Christchurch,NZ,-43.5333,172.6333,65.32,88,75,10.36,heavy intensity drizzle
118,Dalbandin,PK,28.8947,64.4101,49.32,38,0,4.65,clear sky
119,Tessalit,ML,20.1986,1.0114,64.89,9,0,9.62,clear sky
120,Saint-Francois,FR,46.4154,3.9054,31.41,98,8,2.3,clear sky
121,Progreso,MX,21.2833,-89.6667,66.11,77,100,16.84,overcast clouds
122,Amuntai,ID,-2.4177,115.2494,72.72,98,100,1.74,overcast clouds
123,Pemberton,CA,50.3164,-122.8027,42.49,98,100,5.1,overcast clouds
124,Skelleftea,SE,64.7507,20.9528,21.56,93,0,11.5,clear sky
125,Constantine,DZ,36.365,6.6147,40.41,93,20,5.75,few clouds
126,Znamenskoye,RU,57.1281,73.8282,-5.8,99,48,5.19,scattered clouds
127,Tyrma,RU,50.0833,132.1667,-5.1,95,100,1.01,overcast clouds
128,Xinqing,CN,48.2333,129.5,11.84,84,100,1.19,overcast clouds
129,Waipawa,NZ,-41.4122,175.5153,73.45,75,100,7.92,overcast clouds
130,Komsomolskiy,UZ,40.4272,71.7189,36.32,87,40,11.5,scattered clouds
131,Asheboro,US,35.7079,-79.8136,42.08,74,0,4.61,clear sky
132,Russell,US,32.3502,-85.1999,53.2,64,0,0.0,clear sky
133,Kondopoga,RU,62.2057,34.2614,20.88,99,100,1.92,overcast clouds
134,Maragogi,BR,-9.0122,-35.2225,79.0,77,13,6.38,few clouds
135,Klaksvik,FO,62.2266,-6.589,36.52,70,84,40.42,broken clouds
136,Faanui,PF,-16.4833,-151.75,81.32,76,52,18.45,broken clouds
137,Beloha,MG,-25.1667,45.05,73.94,88,81,9.84,broken clouds
138,Esperance,AU,-33.8667,121.9,71.44,59,35,4.12,scattered clouds
139,Lebu,CL,-37.6167,-73.65,59.27,79,6,18.16,clear sky
140,Visnes,NO,59.3556,5.2242,45.21,81,100,27.63,overcast clouds
141,Roebourne,AU,-20.7833,117.1333,87.42,61,6,4.18,clear sky
142,Turukhansk,RU,65.8167,87.9833,-17.01,92,100,5.68,overcast clouds
143,Mahebourg,MU,-20.4081,57.7,75.49,88,75,3.44,broken clouds
144,Mangai,CD,-4.05,19.5333,73.8,79,99,1.86,overcast clouds
145,Cheremnoye,RU,53.1697,83.2133,-3.41,100,26,6.53,scattered clouds
146,Akdagmadeni,TR,39.6603,35.8836,36.55,76,98,17.65,overcast clouds
147,Kavaratti,IN,10.5669,72.642,78.42,72,100,12.39,overcast clouds
148,Havelock,US,34.8791,-76.9013,46.35,90,0,3.44,clear sky
149,Ranong,TH,9.9658,98.6348,76.93,84,36,4.09,scattered clouds
150,Omaruru,NA,-21.4333,15.9333,71.44,74,92,7.52,overcast clouds
151,Longyearbyen,SJ,78.2186,15.6401,13.84,79,75,1.14,light snow
152,Ladario,BR,-19.0047,-57.6017,75.4,37,21,2.28,few clouds
153,Prince Rupert,CA,54.3161,-130.3201,42.89,93,100,40.29,light rain
154,Saskylakh,RU,71.9167,114.0833,3.36,83,93,14.94,overcast clouds
155,Hofn,IS,64.2539,-15.2082,30.54,61,100,16.62,overcast clouds
156,Martapura,ID,-3.4167,114.85,77.09,88,20,5.75,few clouds
157,Hualmay,PE,-11.0964,-77.6139,70.38,80,66,6.8,broken clouds
158,Kavieng,PG,-2.5744,150.7967,83.82,74,100,10.13,overcast clouds
159,Mar Del Plata,AR,-38.0023,-57.5575,67.87,83,0,18.99,clear sky
160,Port Lincoln,AU,-34.7333,135.8667,69.17,59,100,9.31,overcast clouds
161,Egvekinot,RU,66.3167,-179.1667,-12.08,73,0,15.41,clear sky
162,Camocim,BR,-2.9022,-40.8411,77.67,87,15,8.21,few clouds
163,Bonfim,BR,3.0833,-59.95,84.38,53,100,5.12,overcast clouds
164,Hermanus,ZA,-34.4187,19.2345,63.9,83,0,6.55,clear sky
165,Khatanga,RU,71.9667,102.5,3.33,85,99,14.65,overcast clouds
166,Sioux Lookout,CA,50.1001,-91.917,28.78,93,100,8.05,overcast clouds
167,Den Helder,NL,52.9599,4.7593,49.95,85,100,18.41,overcast clouds
168,Marsh Harbour,BS,26.5412,-77.0636,74.07,74,0,4.14,clear sky
169,Kortkeros,RU,61.8106,51.5806,12.2,93,100,8.01,overcast clouds
170,Finschhafen,PG,-6.6024,147.8681,85.08,71,100,6.98,overcast clouds
171,Isetskoye,RU,56.4858,65.3226,8.76,95,76,7.85,broken clouds
172,Bethel,US,41.3712,-73.414,34.81,71,2,3.0,clear sky
173,Ribeira Grande,PT,38.5167,-28.7,60.12,71,28,5.95,scattered clouds
174,Araouane,ML,18.9048,-3.5265,65.71,11,0,11.34,clear sky
175,Mehamn,NO,71.0357,27.8492,20.1,88,100,13.8,overcast clouds
176,Prince Albert,CA,53.2001,-105.7677,33.75,69,75,12.66,broken clouds
177,Kasongo-Lunda,CD,-6.4667,16.8167,70.29,94,100,0.85,overcast clouds
178,Sitka,US,57.0531,-135.33,42.69,87,100,11.5,light rain
179,Inuvik,CA,68.3499,-133.7218,-34.56,67,20,3.44,few clouds
180,Saint Anthony,US,45.0205,-93.218,39.22,69,100,14.97,overcast clouds
181,Vanimo,PG,-2.6741,141.3028,84.87,69,32,4.38,scattered clouds
182,Vila Do Maio,CV,15.1333,-23.2167,71.55,80,0,9.51,clear sky
183,Ukiah,US,39.1502,-123.2078,78.69,22,0,4.61,clear sky
184,Tagusao,PH,9.1924,117.8141,82.18,69,100,5.19,overcast clouds
185,Castro,BR,-24.7911,-50.0119,61.38,97,14,8.34,few clouds
186,Vao,NC,-22.6667,167.4833,81.18,86,100,19.55,overcast clouds
187,Narimanov,RU,46.6927,47.8498,30.11,74,100,11.27,overcast clouds
188,Vila Velha,BR,-20.3297,-40.2925,78.94,86,20,9.22,heavy intensity rain
189,Chokurdakh,RU,70.6333,147.9167,-42.99,100,99,5.64,overcast clouds
190,Arraial Do Cabo,BR,-22.9661,-42.0278,72.28,90,100,12.91,overcast clouds
191,Karabanovo,RU,56.3167,38.7,24.98,91,99,6.42,overcast clouds
192,Broken Hill,AU,-31.95,141.4333,82.11,42,9,8.05,clear sky
193,Wencheng,CN,33.0559,113.7978,37.56,69,99,3.11,overcast clouds
194,Arnprior,CA,45.4334,-76.3494,29.14,94,52,4.65,broken clouds
195,Vaitape,PF,-16.5167,-151.75,81.36,76,52,18.39,broken clouds
196,Bambous Virieux,MU,-20.3428,57.7575,75.45,88,75,3.44,broken clouds
197,Sibiti,CG,-3.6819,13.3499,68.16,98,97,2.13,light rain
198,Verkhoyansk,RU,67.5447,133.385,-43.19,98,96,1.23,overcast clouds
199,Port Said,EG,31.2565,32.2841,57.18,82,40,8.05,scattered clouds
200,Tera,NE,14.0078,0.7531,71.71,12,0,9.22,clear sky
201,Taltal,CL,-25.4,-70.4833,67.01,77,3,5.19,clear sky
202,Dali,CN,25.7,100.1833,39.65,67,83,2.53,broken clouds
203,Jalu,LY,29.0331,21.5482,51.89,50,5,12.55,clear sky
204,Los Chiles,CR,11.0333,-84.7167,76.12,73,19,7.36,few clouds
205,Flinders,AU,-34.5833,150.8552,87.06,50,0,11.99,clear sky
206,Puerto Madryn,AR,-42.7692,-65.0385,64.54,66,44,21.85,scattered clouds
207,Toppenish,US,46.3774,-120.3087,49.86,66,100,3.4,overcast clouds
208,Pisco,PE,-13.7,-76.2167,71.02,83,0,4.61,clear sky
209,Cidreira,BR,-30.1811,-50.2056,69.82,75,0,8.43,clear sky
210,Umm Kaddadah,SD,13.6017,26.6876,60.28,21,5,12.24,clear sky
211,Zabaykalsk,RU,49.6333,117.3167,0.9,96,99,6.71,overcast clouds
212,Vila Franca Do Campo,PT,37.7167,-25.4333,57.2,77,84,6.33,broken clouds
213,Ossora,RU,59.2353,163.0719,8.58,93,100,7.07,light snow
214,Pagudpud,PH,18.5616,120.7868,76.96,74,22,10.4,few clouds
215,Sunbury,AU,-37.5833,144.7333,80.02,50,75,9.22,broken clouds
216,Port Elizabeth,ZA,-33.918,25.5701,62.89,94,75,16.11,broken clouds
217,Tateyama,JP,34.9833,139.8667,47.1,62,100,14.56,overcast clouds
218,Whyalla,AU,-33.0333,137.5833,71.49,73,75,9.22,broken clouds
219,Eyl,SO,7.9803,49.8164,71.2,75,9,13.87,clear sky
220,Provideniya,RU,64.3833,-173.3,-2.09,60,0,8.95,clear sky
221,Inhambane,MZ,-23.865,35.3833,71.02,92,0,5.55,clear sky
222,Ahipara,NZ,-35.1667,173.1667,81.48,64,9,12.68,clear sky
223,Hasaki,JP,35.7333,140.8333,43.29,54,90,19.35,overcast clouds
224,Richards Bay,ZA,-28.783,32.0377,67.42,93,0,3.51,clear sky
225,Tambura,SS,5.6,27.4667,68.18,23,94,4.9,overcast clouds
226,Adelaide,AU,-34.9333,138.6,75.42,60,75,10.36,broken clouds
227,Pathein,MM,16.7833,94.7333,65.89,63,99,5.28,overcast clouds
228,Naze,JP,28.3667,129.4833,58.12,69,87,9.98,overcast clouds
229,Katsuura,JP,35.1333,140.3,47.19,61,100,16.42,overcast clouds
230,Shimoda,JP,34.6667,138.95,44.96,59,100,16.78,overcast clouds
231,Arman,RU,59.7,150.1667,6.22,75,50,7.0,scattered clouds
232,Oranjestad,AW,12.524,-70.027,80.55,78,40,13.8,scattered clouds
233,Huruta,ET,8.15,39.35,56.44,63,70,5.06,broken clouds
234,Atar,MR,20.5169,-13.0499,72.07,11,100,8.59,overcast clouds
235,Barao De Melgaco,BR,-16.1944,-55.9675,79.32,90,100,2.04,moderate rain
236,Matay,EG,28.419,30.7792,55.51,27,0,5.73,clear sky
237,Fonte Boa,BR,-2.4959,-66.2662,70.99,99,99,1.12,light rain
238,Isangel,VU,-19.55,169.2667,78.67,92,100,36.06,overcast clouds
239,Syriam,MM,16.7722,96.2378,66.31,94,99,2.3,mist
240,Nhulunbuy,AU,-12.2333,136.7667,86.61,70,40,9.22,scattered clouds
241,Aswan,EG,24.0934,32.907,60.1,25,0,5.75,clear sky
242,Adrar,MR,20.5022,-10.0711,65.34,11,100,10.36,overcast clouds
243,Henderson,US,36.0397,-114.9819,76.44,15,0,12.66,clear sky
244,Puerto Colombia,CO,10.9878,-74.9547,80.69,86,9,19.24,clear sky
245,Comodoro Rivadavia,AR,-45.8667,-67.5,64.26,39,0,17.27,clear sky
246,Ust-Nera,RU,64.5667,143.2,-21.69,93,53,3.98,broken clouds
247,Juneau,US,58.3019,-134.4197,43.21,96,100,16.11,light rain
248,Kokstad,ZA,-30.5472,29.4241,57.74,65,0,4.79,clear sky
249,Hobyo,SO,5.3505,48.5268,75.6,73,0,20.09,clear sky
250,Dryden,CA,49.7833,-92.7503,28.69,93,100,11.5,overcast clouds
251,Ati,TD,13.2154,18.3353,63.36,12,0,10.13,clear sky
252,Price,US,39.5994,-110.8107,51.06,18,0,12.66,clear sky
253,Melfort,CA,52.8667,-104.6177,28.53,80,100,9.22,overcast clouds
254,Khash,IR,28.2211,61.2158,42.51,41,0,2.68,clear sky
255,Chulman,RU,56.8479,124.9104,-28.77,100,100,0.34,overcast clouds
256,Cochrane,CA,51.1834,-114.4687,47.84,33,0,20.71,clear sky
257,Cabra,ES,37.4725,-4.4421,48.18,71,0,4.72,clear sky
258,Bay Roberts,CA,47.5999,-53.2648,32.5,87,100,7.0,overcast clouds
259,Okhotsk,RU,59.3833,143.3,9.95,77,100,10.36,overcast clouds
260,Spring Hill,US,28.4769,-82.5255,53.89,94,100,5.75,overcast clouds
261,Tucurui,BR,-3.7661,-49.6725,73.81,96,100,2.93,heavy intensity rain
262,Ochakiv,UA,46.6128,31.5498,30.34,67,59,14.38,broken clouds
263,Gazojak,TM,41.1875,61.4036,30.85,89,97,7.96,overcast clouds
264,Dunda,TZ,-8.1167,34.25,62.92,98,100,1.79,light rain
265,Yerbogachen,RU,61.2767,108.0108,-29.16,100,100,2.84,overcast clouds
266,Nelson Bay,AU,-32.7167,152.15,86.29,57,2,3.0,clear sky
267,Ponta Do Sol,PT,32.6667,-17.1,69.01,54,100,10.94,overcast clouds
268,Emerald,AU,-23.5333,148.1667,83.34,54,0,6.91,clear sky
269,Hamilton,US,39.1834,-84.5333,41.63,70,0,6.91,clear sky
270,Inderka,RU,53.2485,46.2582,29.43,96,100,12.01,light snow
271,Iqaluit,CA,63.7506,-68.5145,-0.31,84,100,12.66,light snow
272,Saint-Pierre,RE,-21.3393,55.4781,74.88,78,0,5.75,clear sky
273,Brae,GB,60.3964,-1.353,40.91,73,98,32.66,overcast clouds
274,Marsabit,KE,2.3284,37.9899,69.8,30,1,9.57,clear sky
275,Buala,SB,-8.145,159.5921,80.69,85,100,8.3,moderate rain
276,Maues,BR,-3.3836,-57.7186,73.96,98,100,2.33,light rain
277,Talnakh,RU,69.4865,88.3972,-2.79,96,100,11.92,overcast clouds
278,Vallenar,CL,-28.5708,-70.7581,70.07,63,61,3.98,broken clouds
279,Tiznit,MA,29.5833,-9.5,62.24,27,3,10.71,clear sky
280,Santa Cruz,BO,-17.8,-63.1667,80.06,61,40,3.44,scattered clouds
281,Port-Gentil,GA,-0.7193,8.7815,80.51,81,100,10.89,light rain
282,Aktash,RU,50.3,87.7333,-14.1,92,100,3.15,overcast clouds
283,Balingasay,PH,16.3573,119.8564,79.9,68,71,15.46,broken clouds
284,Reconquista,AR,-29.15,-59.65,74.48,34,0,7.96,clear sky
285,Katobu,ID,-4.9408,122.5276,80.64,82,100,3.0,overcast clouds
286,Snezhnogorsk,RU,69.1933,33.2531,19.18,96,50,12.46,scattered clouds
287,Seydi,TM,39.4816,62.9137,39.11,48,96,5.7,overcast clouds
288,Robertsport,LR,6.7533,-11.3686,79.95,85,6,5.21,clear sky
289,Santiago Del Estero,AR,-27.7951,-64.2615,77.81,34,5,4.16,clear sky
290,Lethem,GY,3.3803,-59.7968,83.21,54,100,7.27,overcast clouds
291,Kaseda,JP,31.4167,130.3167,43.83,79,100,2.73,overcast clouds
292,Torbay,CA,47.6666,-52.7314,31.75,91,100,20.71,overcast clouds
293,Osakarovka,KZ,50.565,72.5692,-0.76,98,52,6.4,broken clouds
294,Petropavlovsk-Kamchatskiy,RU,53.0452,158.6483,21.79,74,75,0.0,broken clouds
295,Ust-Tsilma,RU,65.441,52.1498,10.04,92,74,9.98,broken clouds
296,Muros,ES,42.7762,-9.0603,52.3,58,0,5.73,clear sky
297,Esso,RU,55.9333,158.7,13.3,93,99,4.54,overcast clouds
298,Kaitangata,NZ,-46.2817,169.8464,59.83,86,100,11.01,light rain
299,Dnestrovsc,MD,46.6222,29.9133,30.56,82,19,8.12,few clouds
300,Magaria,NE,12.9983,8.9099,65.32,10,7,10.0,clear sky
301,Ternate,ID,0.8,127.4,81.54,78,100,6.24,overcast clouds
302,Antofagasta,CL,-23.65,-70.4,65.86,81,3,5.35,clear sky
303,Seoul,KR,37.5683,126.9778,29.64,84,20,2.3,few clouds
304,Rio Grande,BR,-32.035,-52.0986,66.94,67,0,8.32,clear sky
305,Mayo,US,38.8876,-76.5119,39.24,56,0,5.75,clear sky
306,Saint George,US,37.1041,-113.5841,68.47,12,0,6.91,clear sky
307,Bagdarin,RU,54.4333,113.6,-0.02,97,100,1.41,overcast clouds
308,Bonthe,SL,7.5264,-12.505,76.69,85,11,3.11,few clouds
309,Salalah,OM,17.0151,54.0924,63.77,29,3,15.32,clear sky
310,Cairns,AU,-16.9167,145.7667,90.1,65,40,6.91,scattered clouds
311,Laguna,US,38.421,-121.4238,73.22,51,0,4.61,clear sky
312,Poya,NC,-21.35,165.15,81.41,88,93,13.4,overcast clouds
313,Faya,SA,18.3851,42.4509,53.71,81,4,3.69,clear sky
314,Belmonte,BR,-15.8631,-38.8828,81.1,87,17,5.99,few clouds
315,Bardiyah,LY,31.7561,25.0865,52.72,54,58,22.84,broken clouds
316,Saravan,AM,39.7196,45.6483,20.05,89,81,4.47,broken clouds
317,Takoradi,GH,4.8845,-1.7554,78.31,86,21,6.6,few clouds
318,Darhan,MN,49.4867,105.9228,2.28,97,100,1.03,overcast clouds
319,College,US,64.8569,-147.8028,3.18,77,75,4.61,broken clouds
320,Port Townsend,US,48.117,-122.7605,49.69,86,100,1.99,overcast clouds
321,Qui Nhon,VN,13.7667,109.2333,75.16,88,99,6.69,overcast clouds
322,Broome,US,42.2506,-75.833,27.37,74,100,8.05,overcast clouds
323,Upernavik,GL,72.7868,-56.1549,-16.6,90,90,6.85,overcast clouds
324,Tehachapi,US,35.1322,-118.449,67.41,19,41,5.08,scattered clouds
325,Narsaq,GL,60.9167,-46.05,-10.73,77,19,8.34,few clouds
326,Husavik,IS,66.0449,-17.3389,28.31,96,100,23.91,snow
327,Acarau,BR,-2.8856,-40.12,79.43,81,29,12.71,scattered clouds
328,Barcelos,PT,41.5388,-8.6151,53.69,65,0,5.57,clear sky
329,Llanes,ES,43.4198,-4.7549,50.9,65,8,4.12,clear sky
330,Fairbanks,US,64.8378,-147.7164,6.76,68,75,4.61,broken clouds
331,Amahai,ID,-3.3333,128.9167,84.9,67,77,1.54,broken clouds
332,Ninghai,CN,29.2892,121.4247,45.73,86,100,2.28,overcast clouds
333,Geraldton,AU,-28.7667,114.6,73.13,64,0,17.27,clear sky
334,The Valley,AI,18.217,-63.0578,77.83,65,30,19.13,scattered clouds
335,Guayaramerin,BO,-10.8368,-65.3614,73.31,97,100,1.45,overcast clouds
336,San Marcos,US,33.1434,-117.1661,77.02,39,100,4.09,overcast clouds
337,Heishan,CN,41.6892,122.1128,27.18,56,0,7.99,clear sky
338,Pimentel,PE,-6.8367,-79.9342,71.62,78,100,11.1,overcast clouds
339,Concepcion Del Uruguay,AR,-32.4825,-58.2372,70.99,69,0,7.92,clear sky
340,Coihaique,CL,-45.5752,-72.0662,60.75,41,40,10.36,scattered clouds
341,Parana,AR,-31.732,-60.5238,75.51,57,0,5.79,clear sky
342,Kyzyl-Suu,KG,42.3414,78.0056,18.82,65,57,9.26,broken clouds
343,Dharmadam,IN,11.7833,75.4333,71.49,89,100,3.33,overcast clouds
344,Mount Isa,AU,-20.7333,139.5,87.57,48,0,10.36,clear sky
345,Marzuq,YE,14.4,46.4667,56.64,36,1,2.8,clear sky
346,Tiszadob,HU,48.0167,21.1667,35.06,89,64,3.51,broken clouds
347,Morristown,US,36.214,-83.2949,39.25,68,0,0.0,clear sky
348,Constitucion,CL,-35.3333,-72.4167,60.3,89,25,15.64,scattered clouds
349,Nabire,ID,-3.3667,135.4833,76.91,88,99,4.07,overcast clouds
350,Pampa,US,35.5362,-100.9599,51.57,34,0,10.36,clear sky
351,Chateauroux,FR,46.8167,1.7,38.26,87,0,5.75,clear sky
352,Ballina,AU,-28.8667,153.5667,78.98,64,100,5.75,overcast clouds
353,Rosehearty,GB,57.697,-2.1132,43.36,73,76,18.75,broken clouds
354,Middletown,US,39.5151,-84.3983,41.52,75,0,9.22,clear sky
355,Zwedru,LR,6.0667,-8.1281,71.53,96,16,1.23,few clouds
356,Ust-Maya,RU,60.4167,134.5333,-8.79,96,95,1.66,overcast clouds
357,Tutoia,BR,-2.7619,-42.2744,84.18,85,65,8.01,broken clouds
358,Houma,US,29.5958,-90.7195,53.6,57,0,1.01,clear sky
359,Chililabombwe,ZM,-12.3648,27.8229,62.08,97,100,3.76,light rain
360,Mokhsogollokh,RU,61.4681,128.9203,-26.36,97,92,0.6,overcast clouds
361,Belaya Gora,RU,68.5333,146.4167,-44.72,98,77,3.71,broken clouds
362,Camacha,PT,33.0833,-16.3333,65.53,68,20,11.5,few clouds
363,Suluq,LY,31.6682,20.2521,49.08,59,8,11.63,clear sky
364,Nador,MA,35.174,-2.9287,59.25,72,100,10.36,overcast clouds
365,Severobaykalsk,RU,55.65,109.3167,3.2,85,100,5.57,overcast clouds
366,Airai,TL,-8.9266,125.4092,68.49,82,100,1.32,overcast clouds
367,Baykit,RU,61.67,96.37,-24.56,100,14,2.44,few clouds
368,Saryg-Sep,RU,51.5,95.6,-12.53,99,99,1.88,overcast clouds
369,Dengzhou,CN,37.8086,120.7508,37.47,42,49,7.0,scattered clouds
370,Jacqueville,CI,5.2052,-4.4146,82.31,89,8,8.5,clear sky
371,Beringovskiy,RU,63.05,179.3167,-14.3,85,2,14.14,clear sky
372,Jibuti,DJ,11.5,42.5,71.02,77,55,14.94,broken clouds
373,Neubrandenburg,DE,53.5667,13.2667,41.9,96,98,11.32,overcast clouds
374,High Level,CA,58.5169,-117.136,8.71,85,100,6.91,light snow
375,Quelimane,MZ,-17.8786,36.8883,71.82,94,8,3.15,clear sky
376,Usogorsk,RU,63.4106,48.6872,14.34,95,100,8.32,overcast clouds
377,Yarada,IN,17.65,83.2667,66.52,100,20,2.3,mist
378,Sorland,NO,67.667,12.6934,38.68,59,100,33.96,light rain
379,Chapais,CA,49.7834,-74.8492,19.18,98,100,2.66,overcast clouds
380,Tecoanapa,MX,16.5167,-98.75,78.46,66,67,4.7,broken clouds
381,Villa Bruzual,VE,9.3328,-69.1208,81.68,63,91,3.85,overcast clouds
382,Sao Joao Dos Patos,BR,-6.495,-43.7022,72.5,85,4,2.86,clear sky
383,Jakar,BT,27.5492,90.7525,27.5,89,98,2.51,overcast clouds
384,Gali,GE,42.6265,41.7381,47.34,73,100,9.24,overcast clouds
385,Nuuk,GL,64.1835,-51.7216,7.88,65,100,18.99,overcast clouds
386,Taoudenni,ML,22.6783,-3.9836,66.67,13,0,13.58,clear sky
387,Tizimin,MX,21.15,-88.15,68.95,84,100,11.86,overcast clouds
388,Westport,US,41.1415,-73.3579,36.75,68,0,7.0,clear sky
389,Mackenzie,CA,55.2999,-123.1698,37.62,70,100,9.22,overcast clouds
390,Sisimiut,GL,66.9395,-53.6735,-2.42,76,100,19.71,overcast clouds
391,Leningradskiy,RU,69.3833,178.4167,-26.01,85,16,4.38,few clouds
392,Miraflores,MX,19.2167,-98.8083,61.03,71,63,5.21,broken clouds
393,Mackay,AU,-21.15,149.2,88.68,57,0,8.05,clear sky
394,Lagoa,PT,39.05,-27.9833,59.18,73,99,13.49,overcast clouds
395,Fare,PF,-16.7,-151.0167,81.66,75,10,18.12,light rain
396,San Cristobal,VE,7.7669,-72.225,73.58,88,45,2.42,scattered clouds
397,Benghazi,LY,32.1167,20.0667,54.48,52,51,23.85,broken clouds
398,Nyirmeggyes,HU,47.9167,22.2667,37.69,87,100,4.27,overcast clouds
399,Viransehir,TR,37.2353,39.7631,41.04,86,34,11.05,scattered clouds
400,Tyup,KG,42.7276,78.3648,16.97,75,98,5.28,overcast clouds
401,Diego De Almagro,CL,-26.3667,-70.05,65.08,49,0,3.33,clear sky
402,Quatre Cocos,MU,-20.2078,57.7625,75.31,80,100,8.05,overcast clouds
403,Pula,HR,44.8683,13.8481,41.86,75,0,5.75,clear sky
404,Tanete,ID,-3.9443,119.7848,81.1,80,100,4.38,overcast clouds
405,Tawang,IN,27.5833,91.8667,23.04,76,64,4.94,broken clouds
406,Halden,NO,59.1226,11.3871,39.63,79,90,16.42,overcast clouds
407,Pervomayskoye,RU,43.919,46.7102,43.54,88,100,14.65,overcast clouds
408,Haines Junction,CA,60.7522,-137.5108,40.95,48,13,11.5,few clouds
409,Slave Lake,CA,55.2834,-114.769,40.98,56,100,24.16,overcast clouds
410,Livingstone,ZM,-17.8419,25.8543,64.85,86,31,2.98,scattered clouds
411,Karratha,AU,-20.7377,116.8463,87.37,61,16,3.94,few clouds
412,Kinsale,IE,51.7075,-8.5306,49.23,100,75,5.75,broken clouds
413,Maua,BR,-23.6678,-46.4614,69.37,88,78,6.62,broken clouds
414,Rumphi,MW,-11.0186,33.8575,62.38,93,81,2.15,broken clouds
415,Zhigansk,RU,66.7697,123.3711,-42.32,100,89,0.92,overcast clouds
416,Ejura,GH,7.3856,-1.3562,77.0,45,33,4.34,scattered clouds
417,Toucheng,TW,24.8592,121.8233,65.14,91,100,6.73,overcast clouds
418,Caravelas,BR,-17.7125,-39.2481,77.31,91,18,6.08,few clouds
419,Vostok,RU,46.4856,135.8833,8.89,88,90,2.59,overcast clouds
420,Thaton,MM,16.9206,97.3714,66.79,59,98,3.22,overcast clouds
421,Rocha,UY,-34.4833,-54.3333,59.41,81,0,1.9,clear sky
422,Campiglia Marittima,IT,43.0602,10.6152,50.31,66,0,4.32,clear sky
423,Tuy Hoa,VN,13.0833,109.3,75.96,88,100,3.62,overcast clouds
424,Vestmannaeyjar,IS,63.4427,-20.2734,35.78,73,89,13.91,overcast clouds
425,Bandarbeyla,SO,9.4942,50.8122,74.98,67,75,16.42,broken clouds
426,Lima,PE,-12.0432,-77.0282,71.38,80,20,4.61,few clouds
427,Guadalupe Y Calvo,MX,26.1,-106.9667,40.93,35,0,2.1,clear sky
428,La Palma,US,33.8464,-118.0467,81.99,24,75,7.0,broken clouds
429,Aklavik,CA,68.2191,-135.0107,-34.6,67,40,4.61,scattered clouds
430,Santa Maria,BR,-29.6842,-53.8069,67.3,73,0,0.0,clear sky
431,Dunedin,NZ,-45.8742,170.5036,59.81,84,100,5.99,moderate rain
432,Ukrayinka,UA,47.9167,35.35,31.86,92,75,13.42,broken clouds
433,New Milford,US,40.9327,-74.0179,36.82,68,4,5.01,clear sky
434,Evensk,RU,61.95,159.2333,-2.33,74,4,5.35,clear sky
435,Tarata,BO,-17.6167,-66.0167,62.02,76,55,6.13,broken clouds
436,Sistranda,NO,63.7256,8.834,37.9,78,100,35.48,overcast clouds
437,Sedan,FR,49.6667,5.0,46.02,96,81,4.5,broken clouds
438,Tigil,RU,57.8,158.6667,10.65,80,76,2.26,broken clouds
439,Basco,PH,20.4487,121.9702,74.41,83,100,21.47,overcast clouds
440,Kano,NG,12.0001,8.5167,64.29,48,89,2.3,overcast clouds
441,Cabedelo,BR,-6.9811,-34.8339,81.27,76,27,10.16,scattered clouds
442,Guipavas,FR,48.4352,-4.3972,46.72,100,100,6.91,mist
443,Cockburn Town,TC,21.4612,-71.1419,76.96,73,40,18.41,scattered clouds
444,Mbengwi,CM,6.0167,10.0,64.76,30,20,1.03,few clouds
445,Naryan-Mar,RU,67.6713,53.087,10.15,92,79,16.75,broken clouds
446,Evansville,US,37.9748,-87.5558,46.87,56,0,8.05,clear sky
447,Phan Thiet,VN,10.9333,108.1,79.92,63,87,8.79,overcast clouds
448,Sakakah,SA,29.9697,40.2064,49.57,38,0,6.46,clear sky
449,Lavrentiya,RU,65.5833,-171.0,-21.84,94,33,12.24,scattered clouds
450,Am Timan,TD,11.0297,20.2827,69.96,16,5,6.89,clear sky
451,Nakur,IN,29.9167,77.3,54.57,80,100,1.59,overcast clouds
452,Buraydah,SA,26.326,43.975,50.45,37,0,8.61,clear sky
453,Rawson,AR,-43.3002,-65.1023,63.39,62,12,17.9,few clouds
454,Puerto Escondido,MX,15.85,-97.0667,77.05,78,28,0.58,scattered clouds
455,Langenburg,DE,49.2544,9.8458,43.5,93,100,10.36,overcast clouds
456,Hendek,TR,40.7994,30.7481,38.52,99,100,6.04,light rain
457,La Ronge,CA,55.1001,-105.2842,14.25,73,75,11.5,broken clouds
458,Nanakuli,US,21.3906,-158.1547,80.11,60,44,8.14,scattered clouds
459,Melo,UY,-32.3667,-54.1833,62.04,69,0,8.05,clear sky
460,Axim,GH,4.8699,-2.2405,77.81,89,96,6.15,overcast clouds
461,Varhaug,NO,58.6147,5.6457,44.89,79,100,22.55,overcast clouds
462,Kununurra,AU,-15.7667,128.7333,84.18,70,73,2.3,broken clouds
463,Kupang,ID,-10.1667,123.5833,82.9,73,95,2.86,overcast clouds
464,Huarmey,PE,-10.0681,-78.1522,71.46,78,100,5.73,overcast clouds
465,Gimli,CA,50.6336,-96.9907,35.44,93,100,8.05,overcast clouds
466,Yangjiang,CN,21.85,111.9667,56.95,82,98,10.27,overcast clouds
467,Pemba,MZ,-12.974,40.5178,77.7,94,20,11.5,few clouds
468,Lazaro Cardenas,MX,17.9583,-102.2,75.88,74,0,4.97,clear sky
469,Catio,GW,11.2833,-15.25,72.68,84,59,4.47,broken clouds
470,Abingdon,GB,51.6711,-1.2828,50.05,85,100,3.0,overcast clouds
471,Saldanha,ZA,-33.0117,17.9442,62.65,93,98,5.91,overcast clouds
472,Port Hedland,AU,-20.3167,118.5667,84.25,79,40,2.3,scattered clouds
473,Nola,IT,40.922,14.5329,49.57,44,0,4.36,clear sky
474,Bonnyville,CA,54.2668,-110.735,38.03,94,21,5.01,few clouds
475,Touros,BR,-5.1989,-35.4608,81.5,71,6,13.22,clear sky
476,Shaunavon,CA,49.6501,-108.4181,29.98,82,70,7.4,broken clouds
477,Praxedis Guerrero,MX,31.3667,-106.0167,58.55,24,1,6.93,clear sky
478,Picayune,US,30.5255,-89.6795,50.95,68,0,2.57,clear sky
479,Bowen,AU,-20.0167,148.2333,84.42,62,10,6.69,clear sky
480,Chara,RU,56.9064,118.2631,-7.6,96,100,0.67,overcast clouds
481,Rincon,US,32.296,-81.2354,48.85,91,100,4.56,overcast clouds
482,Jega,NG,12.2175,4.3792,71.53,14,72,9.31,broken clouds
483,Balasheyka,RU,53.2841,48.0851,25.29,96,100,10.18,snow
484,Maneadero,MX,31.7167,-116.5667,66.09,58,8,3.09,clear sky
485,Istok,XK,42.7808,20.4875,36.52,81,84,4.25,broken clouds
486,Port Hawkesbury,CA,45.6169,-61.3485,38.91,99,100,20.71,mist
487,Aden,YE,12.7794,45.0367,76.33,73,18,16.35,few clouds
488,Hoima,UG,1.4356,31.3436,70.66,59,96,0.83,overcast clouds
489,Aykhal,RU,66.0,111.5,-17.59,98,100,4.36,overcast clouds
490,Doha,QA,25.2867,51.5333,60.78,72,0,12.66,clear sky
491,Galveston,US,29.3669,-94.9669,59.18,61,0,6.8,clear sky
492,Ampanihy,MG,-24.7,44.75,73.0,90,100,9.71,overcast clouds
493,Kashi,CN,39.4547,75.9797,24.01,68,40,8.95,scattered clouds
494,Misratah,LY,32.3754,15.0925,54.93,52,6,13.38,clear sky
495,Port Hardy,CA,50.6996,-127.4199,48.76,93,100,13.8,mist
496,Makakilo City,US,21.3469,-158.0858,79.61,54,28,9.86,scattered clouds
497,General Roca,AR,-39.0333,-67.5833,79.2,16,85,1.7,overcast clouds
498,Vardo,NO,70.3705,31.1107,26.74,80,79,18.92,broken clouds
499,Novoagansk,RU,61.9449,76.6625,-15.5,99,6,5.55,clear sky
500,Chicama,PE,-7.8447,-79.1469,68.54,70,100,4.97,overcast clouds
501,Nome,US,64.5011,-165.4064,-0.33,71,100,20.71,light snow
502,Mattru,SL,7.6244,-11.8332,74.07,95,6,0.45,clear sky
503,Kailua,US,21.4022,-157.7394,81.07,67,75,10.36,broken clouds
504,Senanga,ZM,-16.1167,23.2667,68.22,90,100,5.01,overcast clouds
505,Cangzhou,CN,38.3167,116.8667,36.41,51,8,6.69,clear sky
506,Kerouane,GN,9.2667,-9.0167,71.82,24,0,2.08,clear sky
507,Coquimbo,CL,-29.9533,-71.3436,64.22,84,40,5.39,scattered clouds
508,Karakol,KG,42.4907,78.3936,16.68,64,92,7.49,overcast clouds
509,Codrington,AU,-38.2667,141.9667,70.05,64,89,11.52,overcast clouds
510,Aviles,ES,43.5547,-5.9248,49.73,89,0,11.5,clear sky
511,Dumas,US,35.8656,-101.9732,50.04,36,0,6.91,clear sky
512,Tautira,PF,-17.7333,-149.15,86.02,79,75,18.54,light rain
513,Hami,CN,42.8,93.45,22.23,42,0,0.22,clear sky
514,Tukrah,LY,32.5341,20.5791,52.45,55,92,23.06,overcast clouds
515,Kalmunai,LK,7.4167,81.8167,76.19,73,100,6.98,overcast clouds
516,Tabalosos,PE,-6.35,-76.6833,70.0,99,85,1.41,overcast clouds
517,Padang,ID,-0.9492,100.3543,75.25,76,100,5.23,overcast clouds
518,Alto Araguaia,BR,-17.3147,-53.2153,68.7,93,100,3.53,overcast clouds
519,Rimavska Sobota,SK,48.3828,20.0224,42.66,91,98,3.27,overcast clouds
520,Flin Flon,CA,54.7682,-101.865,15.64,79,100,16.11,overcast clouds
521,Batangafo,CF,7.3008,18.2833,70.34,18,4,3.78,clear sky
522,Grottammare,IT,42.9888,13.8649,42.66,34,0,3.89,clear sky
523,Pemangkat,ID,1.1667,108.9667,78.39,85,88,4.97,overcast clouds
524,Koszalin,PL,54.1944,16.1722,43.68,94,62,15.64,broken clouds
525,Qaqortoq,GL,60.7167,-46.0333,-4.7,74,10,7.18,clear sky
526,Bathsheba,BB,13.2167,-59.5167,74.01,83,40,11.5,scattered clouds
527,Erzin,TR,36.9559,36.2,48.72,84,73,8.32,broken clouds
528,Bela,IN,25.9333,81.9833,53.96,81,29,7.83,scattered clouds
529,San Quintin,MX,30.4833,-115.95,64.0,38,10,6.49,clear sky
530,Boyolangu,ID,-8.1181,111.8935,79.07,82,90,3.02,overcast clouds
531,Khandyga,RU,62.6667,135.6,-12.75,94,100,2.33,overcast clouds
532,Tabon,PH,9.2388,117.9946,82.18,68,100,2.82,overcast clouds
533,Miranda,CO,3.2499,-76.2281,66.33,92,98,1.68,overcast clouds
534,Hvide Sande,DK,56.0045,8.1294,44.89,92,100,18.43,overcast clouds
535,Troitsko-Pechorsk,RU,62.7084,56.1964,5.86,94,83,8.16,broken clouds
536,Ojinaga,MX,29.5667,-104.4167,61.75,23,0,0.0,clear sky
537,Severo-Kurilsk,RU,50.6789,156.125,30.87,94,96,27.6,light snow
538,Eydhafushi,MV,5.1033,73.0708,81.25,68,100,10.94,overcast clouds
539,Necochea,AR,-38.5473,-58.7368,65.03,70,100,10.4,overcast clouds
540,Sal Rei,CV,16.1833,-22.9167,68.56,82,0,11.95,clear sky
541,Chincholi,IN,17.4667,77.4333,68.68,63,100,3.11,overcast clouds
542,Arbroath,GB,56.5632,-2.5874,43.88,83,93,24.63,overcast clouds
543,Pandhana,IN,21.7,76.2167,63.84,47,24,5.66,few clouds
544,Da Nang,VN,16.0678,108.2208,75.18,94,75,4.61,broken clouds
545,Yima,CN,34.7381,111.8839,33.82,59,100,5.99,overcast clouds
546,Lac-Megantic,CA,45.5834,-70.8823,30.22,96,100,8.23,light snow
547,Mongar,BT,27.2747,91.2396,36.37,85,73,3.94,broken clouds
548,Bubaque,GW,11.2833,-15.8333,77.7,69,4,7.29,clear sky
549,Auki,SB,-8.7676,160.7034,78.1,91,100,8.86,light rain
550,Bontang,ID,0.1333,117.5,77.13,88,100,5.82,moderate rain
551,Bennington,US,42.8781,-73.1968,31.8,83,99,10.71,overcast clouds
552,Sao Joao Da Barra,BR,-21.6403,-41.0511,72.88,97,100,13.15,moderate rain
553,Sayat,TM,38.7839,63.8803,41.2,46,8,7.49,clear sky
554,Maniitsoq,GL,65.4167,-52.9,0.55,96,100,21.14,light snow
555,Paso De Los Toros,UY,-32.8167,-56.5167,65.61,57,0,7.7,clear sky
556,Rapid Valley,US,44.0625,-103.1463,44.33,34,100,5.01,overcast clouds
557,Acapulco,MX,16.8634,-99.8901,76.89,69,4,4.34,clear sky
558,San Miguel,SV,13.4833,-88.1833,74.77,60,6,3.78,clear sky
559,Saint-Augustin,CA,51.226,-58.6502,14.97,94,100,13.67,light snow
560,Tanout,NE,14.9709,8.8879,62.58,11,7,11.25,clear sky
561,Bairiki,KI,1.3292,172.9752,82.13,75,63,15.93,broken clouds
562,Torres,BR,-29.3353,-49.7269,68.83,82,5,7.09,clear sky
563,High Rock,BS,26.6208,-78.2833,73.24,74,4,9.15,clear sky
564,Maceio,BR,-9.6658,-35.7353,80.04,78,20,3.44,few clouds
565,Vadso,NO,70.0744,29.7487,23.88,90,100,12.53,overcast clouds
566,Okha,RU,53.5739,142.9478,18.64,93,100,15.9,overcast clouds
567,Bandar-E Lengeh,IR,26.5579,54.8807,64.96,46,0,2.75,clear sky
568,Sao Felix Do Xingu,BR,-6.6447,-51.995,72.75,97,100,1.03,overcast clouds
569,Oussouye,SN,12.485,-16.5469,71.92,59,0,7.0,clear sky
570,Cairo,EG,30.0626,31.2497,60.22,35,0,3.44,haze
571,Lipin Bor,RU,60.2622,37.9763,24.06,98,95,5.1,overcast clouds
572,Tuatapere,NZ,-46.1333,167.6833,64.81,64,100,4.07,moderate rain
573,Lucapa,AO,-8.4192,20.7447,64.22,95,92,2.46,overcast clouds
574,Cap Malheureux,MU,-19.9842,57.6142,74.46,80,100,4.0,overcast clouds
575,Bambanglipuro,ID,-7.95,110.2833,79.75,75,100,2.44,overcast clouds
576,Ambon,ID,-3.6954,128.1814,82.54,78,40,3.44,scattered clouds
577,Beidao,CN,34.5686,105.8933,19.96,82,97,2.24,overcast clouds
578,Luwuk,ID,-0.9516,122.7875,84.85,64,100,2.21,overcast clouds
579,Kango,GA,0.1943,10.0951,74.68,96,75,1.28,broken clouds
580,Riosucio,CO,5.4216,-75.7032,58.96,97,92,1.03,overcast clouds
581,Port Blair,IN,11.6667,92.75,75.24,88,40,0.0,mist
582,Tomatlan,MX,19.9333,-105.25,71.35,53,0,4.43,clear sky
583,Outjo,NA,-20.1167,16.15,66.58,85,23,11.05,few clouds
584,Tortoli,IT,39.9256,9.6572,47.17,36,0,4.81,clear sky
585,Honningsvag,NO,70.9821,25.9704,28.4,81,100,27.87,overcast clouds
586,Two Hills,CA,53.7169,-111.7518,22.68,94,24,5.77,few clouds
587,Zhangjiakou,CN,40.81,114.8794,24.08,33,100,0.85,overcast clouds
588,Bella Union,UY,-30.2752,-57.6007,68.95,39,0,8.01,clear sky
589,Nyurba,RU,63.2842,118.3319,-22.79,100,100,1.92,overcast clouds
590,Manicore,BR,-5.8092,-61.3003,74.1,98,100,1.36,moderate rain
591,Guiyang,CN,26.5833,106.7167,30.69,93,100,4.47,overcast clouds
592,Hovd,MN,48.0056,91.6419,-12.89,80,99,1.72,overcast clouds
593,Golyshmanovo,RU,56.3979,68.3728,3.31,97,61,7.23,broken clouds
594,Margate,GB,51.3813,1.3862,49.87,82,100,4.0,overcast clouds
595,Springdale,US,36.1867,-94.1288,51.91,43,0,8.05,clear sky
596,Kidal,ML,18.4411,1.4078,67.24,9,0,7.67,clear sky
597,Mallaig,CA,54.2169,-111.3685,22.98,94,19,6.17,few clouds
598,Bereda,ES,43.2686,-7.5406,43.41,83,0,1.74,clear sky
599,Castelo Branco,PT,39.8222,-7.4909,47.97,75,0,4.5,clear sky
600,Manali,IN,13.1667,80.2667,78.08,74,100,5.35,overcast clouds
601,Falmouth,GB,50.1544,-5.0711,49.1,75,100,15.28,overcast clouds
602,Santa Rosa De Osos,CO,6.6474,-75.4603,53.53,99,100,1.05,overcast clouds
603,Staryy Nadym,RU,65.6118,72.6842,-5.71,93,100,13.2,overcast clouds
604,San Angelo,US,31.4638,-100.437,59.63,30,0,8.05,clear sky
605,Shihezi,CN,44.3,86.0333,3.42,92,100,3.89,overcast clouds
606,Matagami,CA,49.7502,-77.6328,19.51,93,100,2.3,overcast clouds
607,Paamiut,GL,61.994,-49.6678,0.73,78,100,13.02,overcast clouds
608,Nizwa,OM,22.9333,57.5333,58.05,56,0,3.02,clear sky
609,Yar-Sale,RU,66.8333,70.8333,-0.62,94,93,15.7,overcast clouds
610,Kaura Namoda,NG,12.5898,6.5779,69.46,13,95,10.38,overcast clouds
611,Trybukhivtsi,UA,49.0436,25.4581,37.24,98,100,19.06,overcast clouds
612,Anchorage,US,61.2181,-149.9003,32.94,80,75,15.99,broken clouds
613,Pangody,RU,65.85,74.4859,-4.4,88,63,14.25,broken clouds
614,Fortaleza,BR,-3.7227,-38.5247,82.22,74,79,10.4,broken clouds
615,Chengde,CN,40.9725,117.9361,24.6,37,13,2.13,few clouds
616,Olinda,BR,-8.0089,-34.8553,82.13,69,40,5.75,scattered clouds
617,Shieli,KZ,44.1667,66.75,31.6,96,100,5.3,overcast clouds
618,Camacupa,AO,-12.0167,17.4833,61.09,97,100,1.59,overcast clouds
619,San Jose,US,37.3394,-121.895,72.09,33,0,5.75,clear sky
620,Sikeston,US,36.8767,-89.5879,44.49,84,0,11.79,clear sky
621,Anadyr,RU,64.75,177.4833,-28.7,66,20,8.95,fog
622,Priiskovyy,RU,51.9333,116.6333,-7.83,100,100,0.2,overcast clouds
623,Turiacu,BR,-1.6633,-45.3717,74.5,94,67,2.77,broken clouds
624,Isla Mujeres,MX,21.2311,-86.731,69.17,92,100,12.8,overcast clouds
625,Carauari,BR,-4.8828,-66.8958,73.29,99,100,1.97,heavy intensity rain
626,Tamandare,BR,-8.7597,-35.1047,78.96,77,13,6.2,few clouds
627,Puerto Del Rosario,ES,28.5004,-13.8627,71.35,53,99,16.11,overcast clouds
628,Porto Novo,BJ,6.4965,2.6036,76.64,88,43,4.85,scattered clouds
629,Aksarka,RU,66.5606,67.7975,-6.12,99,100,11.72,overcast clouds
630,Khasan,RU,42.4308,130.6434,25.7,58,12,3.96,few clouds
631,Laki,BG,41.85,24.8167,30.36,85,35,8.46,scattered clouds
632,Meulaboh,ID,4.1363,96.1285,76.12,87,100,4.47,overcast clouds
633,Filingue,NE,14.3521,3.3168,70.72,13,0,9.33,clear sky
634,Salekhard,RU,66.53,66.6019,-16.31,100,100,6.04,overcast clouds
635,Keetmanshoop,NA,-26.5833,18.1333,78.94,45,62,5.1,broken clouds
636,Mundo Nuevo,MX,18.7,-95.5,65.41,76,100,17.67,overcast clouds
637,Kushima,JP,31.4583,131.2333,48.49,69,98,7.99,overcast clouds
638,Jinchang,CN,38.4953,102.1739,16.88,50,0,5.64,clear sky
639,Coruripe,BR,-10.1256,-36.1756,78.49,80,12,7.61,few clouds
640,Leogane,HT,18.5108,-72.6339,77.18,76,40,4.23,scattered clouds
641,Sochi,RU,43.6,39.7303,48.29,81,100,7.54,light rain
642,Nishihara,JP,26.1842,127.7558,65.48,63,75,6.91,broken clouds
643,Muravlenko,RU,63.7898,74.523,-11.09,90,74,11.36,broken clouds
644,Uva,RU,56.9908,52.1852,15.48,96,100,6.87,overcast clouds
645,Nouadhibou,MR,20.931,-17.0347,66.09,71,37,11.07,scattered clouds
646,Atyrau,KZ,47.1167,51.8833,26.62,86,45,11.18,mist
647,Black River,JM,18.0264,-77.8487,72.99,82,16,4.14,few clouds
648,Bodden Town,KY,19.2833,-81.25,79.0,79,6,6.78,clear sky
649,Labuhan,ID,-6.8844,112.2051,79.9,80,100,6.4,overcast clouds
650,Weligama,LK,5.9667,80.4167,76.26,73,100,3.71,overcast clouds
651,Itarema,BR,-2.9248,-39.9167,79.27,80,47,12.1,scattered clouds
652,Iralaya,HN,15.0,-83.2333,75.18,79,8,9.78,clear sky
653,Bend,US,44.0582,-121.3153,58.28,24,0,4.61,clear sky
654,Niigata,JP,37.9022,139.0236,40.91,93,75,9.22,broken clouds
655,Goderich,CA,43.7501,-81.7165,23.92,91,20,15.1,few clouds
656,Tezu,IN,27.9167,96.1667,54.59,63,91,2.95,overcast clouds
657,Urusha,RU,54.05,122.9,4.8,92,100,6.98,light snow
658,Jiayuguan,CN,39.8167,98.3,14.4,57,5,5.1,clear sky
659,Nilokheri,IN,29.8333,76.9167,53.98,87,100,3.89,overcast clouds
660,Tulun,RU,54.5611,100.5792,-12.17,100,99,3.65,overcast clouds
661,Taldan,RU,53.6667,124.8,2.7,92,100,8.86,light snow
662,Asau,RO,46.4333,26.4,27.52,86,92,7.56,overcast clouds
663,Totness,SR,5.8833,-56.3167,76.32,81,46,8.5,scattered clouds
664,Kieta,PG,-6.2167,155.6333,85.64,71,96,9.55,light rain
665,Roncesvalles,CO,4.0108,-75.6049,52.5,97,99,0.98,overcast clouds
666,Lagarto,BR,-10.9172,-37.65,80.89,89,1,4.03,clear sky
667,Nhamunda,BR,-2.1861,-56.7131,75.42,92,100,1.5,light rain
668,Joacaba,BR,-27.1781,-51.5047,59.95,64,0,1.66,clear sky
669,Yukamenskoye,RU,57.8865,52.2416,11.73,96,100,7.94,overcast clouds
670,Olafsvik,IS,64.8945,-23.7142,30.65,74,100,38.43,overcast clouds
671,Stornoway,GB,58.2093,-6.3865,37.92,81,40,14.97,scattered clouds
672,Abha,SA,18.2164,42.5053,52.74,84,5,3.62,clear sky
673,Waingapu,ID,-9.6567,120.2641,84.0,68,78,2.19,light rain
674,Bilibino,RU,68.0546,166.4372,-21.95,79,19,0.76,few clouds
675,Guerrero Negro,MX,27.9769,-114.0611,66.52,43,11,12.28,few clouds
676,Rochester,US,43.1548,-77.6156,28.15,73,100,6.91,overcast clouds
677,Castelo Do Piaui,BR,-5.3222,-41.5525,77.29,69,40,2.75,scattered clouds
678,Polohy,UA,47.4844,36.2536,32.07,98,100,12.35,light snow
679,Cervo,ES,43.6702,-7.4101,50.74,67,5,3.89,clear sky
680,Piedras Negras,MX,28.7,-100.5167,64.98,39,0,0.0,clear sky
681,Nagato,JP,34.3833,131.2,49.19,57,56,8.1,broken clouds
682,Suntar,RU,62.1444,117.6319,-17.28,98,100,3.0,overcast clouds
683,Daru,PG,-9.0763,143.2092,80.17,83,78,5.1,light rain
684,Kamakwie,SL,9.5,-12.2333,71.67,76,33,3.06,scattered clouds
685,Port Macquarie,AU,-31.4333,152.9167,80.89,52,0,6.98,clear sky
686,Merauke,ID,-8.4667,140.3333,82.81,78,100,5.28,overcast clouds
687,Darnah,LY,32.767,22.6367,52.65,57,100,24.43,overcast clouds
688,Bumba,CD,2.1833,22.4667,70.63,40,59,1.72,broken clouds
689,Worland,US,44.0169,-107.9554,38.68,55,0,9.22,clear sky
690,Canutama,BR,-6.5339,-64.3831,73.74,98,100,2.21,light rain
